[
	{
		"lat": "41.6636144",
		"lon": "21.5052823",
		"name": "Кале",
		"natural": "peak",
		"address": "Горно Врановци, Општина Чашка, Вардарски СР, Северна Македонија"
	},
	{
		"lat": "41.5097222",
		"lon": "22.3116667",
		"name": "Beli Kamen",
		"natural": "peak",
		"address": "Лубница, Општина Конче, Југоисточен СР, Северна Македонија"
	},
	{
		"lat": "41.9040762",
		"lon": "22.7350356",
		"name": "Чавка (1538)",
		"natural": "peak",
		"address": "Трсино, Општина Виница, Источен СР, Северна Македонија"
	},
	{
		"lat": "41.6602145",
		"lon": "21.0523783",
		"name": "Добра Вода",
		"natural": "peak",
		"address": "Добра Вода, Ќафа, Општина Гостивар, Полошки СР, 6254, Северна Македонија"
	},
	{
		"lat": "41.0488889",
		"lon": "21.6038889",
		"name": "Џаула",
		"natural": "peak",
		"address": "Гнилеш, Општина Новаци, Пелагониски СР, Северна Македонија"
	},
	{
		"lat": "41.4518294",
		"lon": "20.6473638",
		"name": "Голем Рид",
		"natural": "peak",
		"address": "Коџаџик, Општина Центар Жупа, Југозападен СР, Северна Македонија"
	},
	{
		"lat": "42.0575538",
		"lon": "21.2170911",
		"name": "Водени Камен",
		"natural": "peak",
		"address": "Рашче, Општина Сарај, Град Скопје, Скопски СР, Северна Македонија"
	},
	{
		"lat": "41.2266176",
		"lon": "21.289235",
		"name": "Кале",
		"natural": "peak",
		"address": "Вардино, Општина Демир Хисар/Мургашево, Пелагониски СР, Северна Македонија"
	},
	{
		"lat": "41.842122",
		"lon": "21.4984001",
		"name": "Китка",
		"natural": "peak",
		"address": "Рамни Габер, Вражале, Општина Студеничани, Скопски СР, 1053, Северна Македонија"
	},
	{
		"lat": "41.3463953",
		"lon": "21.8258687",
		"name": "Ќаве",
		"natural": "peak",
		"address": "Северна Македонија"
	},
	{
		"lat": "41.39256",
		"lon": "21.6906622",
		"name": "Козјак",
		"natural": "peak",
		"address": "Дува Вода, R1101, Плетвар, Општина Прилеп, Пелагониски СР, Северна Македонија"
	},
	{
		"lat": "41.7801446",
		"lon": "22.5070392",
		"name": "Лисец",
		"natural": "peak",
		"address": "Лисец, R2431, Чешме Маале, Штурово, Општина Радовиш, Југоисточен СР, 2420, Северна Македонија"
	},
	{
		"lat": "41.6227898",
		"lon": "20.6577595",
		"name": "Меденица",
		"natural": "peak",
		"address": "To Vrv Medenica, Галичник, Општина Маврово и Ростуша, Полошки СР, 1254, Северна Македонија"
	},
	{
		"lat": "41.5407991",
		"lon": "22.8747892",
		"name": "Огражденец",
		"natural": "peak",
		"address": "Двориште, Општина Берово, Источен СР, Северна Македонија"
	},
	{
		"lat": "41.0026621",
		"lon": "21.1831915",
		"name": "Пелистер",
		"natural": "peak",
		"address": "Пелистер, Патека до Пелистер, Антена и Големо Езеро, Магарево, Општина Битола, Пелагониски СР, Северна Македонија"
	},
	{
		"lat": "42.1914",
		"lon": "21.4451405",
		"name": "Рамно (1653)",
		"natural": "peak",
		"address": "Брест, Општина Чучер Сандево, Скопски СР, Северна Македонија"
	},
	{
		"lat": "41.7039104",
		"lon": "21.4041566",
		"name": "Солунска Глава",
		"natural": "peak",
		"address": "Нежилово, Општина Чашка, Вардарски СР, Северна Македонија"
	},
	{
		"lat": "41.4364696",
		"lon": "21.2076081",
		"name": "Стара Мусица",
		"natural": "peak",
		"address": "Северна Македонија"
	},
	{
		"lat": "41.5549041",
		"lon": "20.5590288",
		"name": "Бајрак",
		"natural": "peak",
		"address": "Горно Косоврасти, Општина Дебар, Југозападен СР, Северна Македонија"
	},
	{
		"lat": "41.1008409",
		"lon": "21.9316902",
		"name": "Козјак",
		"natural": "peak",
		"address": "Αγοραστά, Δήμος Αλμωπίας, Περιφερειακή Ενότητα Πέλλας, Περιφέρεια Κεντρικής Μακεδονίας, Αποκεντρωμένη Διοίκηση Μακεδονίας - Θράκης, Ελλάς"
	},
	{
		"lat": "41.1642517",
		"lon": "22.247854",
		"name": "Мала Рупа",
		"natural": "peak",
		"address": "R112, Радња, Конско, Општина Гевгелија, Југоисточен СР, Северна Македонија"
	},
	{
		"lat": "42.0032812",
		"lon": "21.4233737",
		"name": "Гоце Делчев",
		"historic": "monument",
		"address": "Градски парк, Булевар Илинден, Карпош 2, Карпош, Скопје, Општина Карпош, Град Скопје, Скопски СР, 1000, Северна Македонија"
	},
	{
		"lat": "42.0008716",
		"lon": "21.4338778",
		"name": "Влез на Скопското кале",
		"historic": "city_gate",
		"address": "Скопско кале, Самоилова, Маџир Маало, Центар, Скопје, Општина Центар, Град Скопје, Скопски СР, 1111, Северна Македонија"
	},
	{
		"lat": "42.0195738",
		"lon": "20.960153",
		"name": "Тетовско Кале",
		"historic": "ruins",
		"address": "Тетовско Кале, Vukasin Simovski, Тетово, Општина Тетово, Полошки СР, 1200, Северна Македонија"
	},
	{
		"lat": "41.1155576",
		"lon": "20.7914836",
		"name": "Лихнид",
		"historic": "archaeological_site",
		"address": "Самуилова тврдина, Кузман Капидан, Воска, Охрид, Општина Охрид, Југозападен СР, 6000, Северна Македонија"
	},
	{
		"lat": "41.3377228",
		"lon": "21.257898",
		"name": "Мечкин Камен",
		"historic": "monument",
		"address": "Мечкин Камен, R1306, Ѓупско Маало, Крушево ВГ, Општина Крушево, Пелагониски СР, 7550, Северна Македонија"
	},
	{
		"lat": "41.3726681",
		"lon": "21.2691515",
		"name": "Петочна",
		"natural": "spring",
		"address": "Петочна, R1306, Струнга, Крушево ВГ, Општина Крушево, Пелагониски СР, 7550, Северна Македонија"
	},
	{
		"lat": "41.372928",
		"lon": "21.2461853",
		"name": "Јаноска",
		"natural": "spring",
		"address": "Јаноска, Тома Никлев, Илинденка, Мијачко Маало, Крушево ВГ, Општина Крушево, Пелагониски СР, 7550, Северна Македонија"
	},
	{
		"lat": "41.37199",
		"lon": "21.2527594",
		"name": "Струнга I",
		"natural": "spring",
		"address": "Струнга I, Нико Доага-Кољка, Струнга, Крушево ВГ, Општина Крушево, Пелагониски СР, 7550, Северна Македонија"
	},
	{
		"lat": "41.3747436",
		"lon": "21.2465865",
		"name": "Црешово Топче",
		"natural": "spring",
		"address": "Гумење, Горно Маало, Крушево ВГ, Општина Крушево, Пелагониски СР, 7550, Северна Македонија"
	},
	{
		"lat": "41.4581845",
		"lon": "21.9759034",
		"name": "Љубаш",
		"natural": "peak",
		"address": "Кавадарци, Општина Кавадарци, Вардарски СР, 1430, Северна Македонија"
	},
	{
		"lat": "42.1261739",
		"lon": "22.4521012",
		"name": "Царев Врв",
		"natural": "peak",
		"address": "Пониква - Царев Врв - Руен - Рудник Саса, Полаки, Општина Кочани, Источен СР, Северна Македонија"
	},
	{
		"lat": "42.1075053",
		"lon": "22.4279598",
		"name": "Изворче",
		"natural": "spring",
		"address": "Изворче, Пониква - Царев Врв - Руен - Рудник Саса, Полаки, Општина Кочани, Источен СР, Северна Македонија"
	},
	{
		"lat": "42.1487447",
		"lon": "22.498079",
		"name": "Сокол",
		"natural": "peak",
		"address": "Пониква - Царев Врв - Руен - Рудник Саса, Костур, Општина Крива Паланка, Североисточен СР, Северна Македонија"
	},
	{
		"lat": "41.9920997",
		"lon": "20.7981751",
		"name": "Шар / Титов Врв / Голем Турчин",
		"natural": "peak",
		"address": "Ridge to peak Titov Vrv, Бозовце, Општина Тетово, Полошки СР, Северна Македонија"
	},
	{
		"lat": "41.4025355",
		"lon": "21.2232605",
		"name": "Вршник",
		"natural": "peak",
		"address": "Крст Божји, Крушево ВГ, Општина Крушево, Пелагониски СР, Северна Македонија"
	},
	{
		"lat": "42.2916094",
		"lon": "22.3507979",
		"name": "WWII Battle - 17th Macedonian Brigade ws Bulgarian army",
		"historic": "monument",
		"address": "WWII Battle - 17th Macedonian Brigade ws Bulgarian army, R2250, Добровница, Општина Крива Паланка, Североисточен СР, Северна Македонија"
	},
	{
		"lat": "41.1776616",
		"lon": "20.679835",
		"name": "Споменик на Револуцијата",
		"historic": "monument",
		"address": "Споменик на Револуцијата, Маршал Тито, Струга V, Струга, Општина Струга, Југозападен СР, 6330, Северна Македонија"
	},
	{
		"lat": "41.6479792",
		"lon": "20.7087293",
		"name": "Царева Чешма",
		"natural": "spring",
		"address": "Царева Чешма, R2238, Маврово, Општина Маврово и Ростуша, Полошки СР, Северна Македонија"
	},
	{
		"lat": "42.1398794",
		"lon": "20.9795993",
		"name": "Пескови",
		"natural": "peak",
		"address": "Kosovë"
	},
	{
		"lat": "42.216028",
		"lon": "21.3533403",
		"name": "Sokolni Kamen",
		"natural": "peak",
		"address": "Leskovicë, Kurbalia, Komuna e Kaçanikut / Opština Kačanik, 71000, Kosovë"
	},
	{
		"lat": "42.2253594",
		"lon": "21.4391348",
		"name": "Копиљача",
		"natural": "peak",
		"address": "Брест, Танушевци, Општина Чучер Сандево, Скопски СР, Северна Македонија"
	},
	{
		"lat": "42.2068363",
		"lon": "21.1191045",
		"name": "Љуботен;Maja e Lubotenit",
		"natural": "peak",
		"address": "Kosovë"
	},
	{
		"lat": "41.8150294",
		"lon": "20.5648052",
		"name": "Корабска Врата",
		"natural": "saddle"
	},
	{
		"lat": "41.5974145",
		"lon": "20.5528723",
		"name": "Голем Крчин",
		"natural": "peak"
	},
	{
		"lat": "41.6374218",
		"lon": "20.5251159",
		"name": "Веливар",
		"natural": "peak"
	},
	{
		"lat": "41.2462013",
		"lon": "20.521823",
		"name": "Црн Камен",
		"natural": "peak",
		"address": "Gorna Belica - Crn Kamen, Вевчани, Општина Вевчани, Југозападен СР, 6335, Северна Македонија"
	},
	{
		"lat": "41.9175143",
		"lon": "20.5757715",
		"name": "Kalabak",
		"natural": "peak",
		"address": "Topojan, Bashkia Kukës, Qarku i Kukësit, Shqipëria Veriore, 8516, Shqipëria"
	},
	{
		"lat": "41.1266757",
		"lon": "20.8442623",
		"name": "Кулишта",
		"natural": "peak",
		"address": "Велгошти, Општина Охрид, Југозападен СР, 6000, Северна Македонија"
	},
	{
		"lat": "41.0882982",
		"lon": "21.0161612",
		"name": "Dom na Kultura ..Dragi Tozija..",
		"historic": "monument",
		"address": "Ресенски сарај, 29. Ноември, Ресен, Општина Ресен, Пелагониски СР, Северна Македонија"
	},
	{
		"lat": "42.1055335",
		"lon": "22.0553053",
		"name": "Камени кукли",
		"natural": "rocks",
		"tourism": "attraction",
		"address": "Камени кукли, R1205, Кетеново, Општина Кратово, Североисточен СР, Северна Македонија"
	},
	{
		"lat": "41.4386751",
		"lon": "21.1907201",
		"name": "Бушова Чешма",
		"natural": "spring",
		"address": "Бушова Чешма, R2337, Долно Дивјаци, Општина Крушево, Пелагониски СР, Северна Македонија"
	},
	{
		"lat": "41.0132921",
		"lon": "21.1993703",
		"name": "Стив",
		"natural": "peak",
		"address": "Каменлива патека, Магарево, Општина Битола, Пелагониски СР, Северна Македонија"
	},
	{
		"lat": "41.005421",
		"lon": "21.1916963",
		"name": "Илинден",
		"natural": "peak",
		"address": "Патека до Антена, Мало и Големо езеро, Нижеполе, Општина Битола, Пелагониски СР, Северна Македонија"
	},
	{
		"lat": "42.0586697",
		"lon": "21.3527926",
		"name": "Rimska crkva",
		"historic": "archaeological_site",
		"address": "Rimska crkva, Мајка Тереза, Орман, Општина Ѓорче Петров, Град Скопје, Скопски СР, 1060, Северна Македонија"
	},
	{
		"lat": "42.0843452",
		"lon": "21.3548716",
		"name": "Давина Кула",
		"historic": "archaeological_site",
		"address": "Давина Кула, A4, Глуво, Општина Чучер Сандево, Град Скопје, Скопски СР, Северна Македонија"
	},
	{
		"lat": "42.0587494",
		"lon": "21.2786993",
		"name": "Голема Кула - Кучково",
		"historic": "archaeological_site",
		"address": "Голема Кула - Кучково, Улица 1, Ѓорче Петров, Горно Свиларе, Општина Сарај, Град Скопје, Скопски СР, 1060, Северна Македонија"
	},
	{
		"lat": "42.0585741",
		"lon": "21.2844339",
		"name": "Мала Кула - Кучково",
		"historic": "archaeological_site",
		"address": "Мала Кула - Кучково, Улица 103, Кучково, Општина Ѓорче Петров, Град Скопје, Скопски СР, Северна Македонија"
	},
	{
		"lat": "41.8594296",
		"lon": "21.738296",
		"name": "Црн Врв",
		"natural": "peak",
		"tourism": "viewpoint",
		"address": "Црн Врв, R1102, Брезница, Општина Петровец, Скопски СР, Северна Македонија"
	},
	{
		"lat": "41.3534928",
		"lon": "22.9655583",
		"name": "4",
		"historic": "boundary_stone",
		"address": "4, R1402, Старо Коњарево, Општина Ново Село, Југоисточен СР, Северна Македонија"
	},
	{
		"lat": "41.3635373",
		"lon": "22.9650202",
		"name": "5",
		"historic": "boundary_stone",
		"address": "5, R1402, Старо Коњарево, Општина Ново Село, Југоисточен СР, Северна Македонија"
	},
	{
		"lat": "41.3649798",
		"lon": "22.964952",
		"name": "6",
		"historic": "boundary_stone",
		"address": "6, R1402, Старо Коњарево, Општина Ново Село, Југоисточен СР, Северна Македонија"
	},
	{
		"lat": "41.3667003",
		"lon": "22.9645721",
		"name": "7",
		"historic": "boundary_stone",
		"address": "7, R1402, Старо Коњарево, Општина Ново Село, Југоисточен СР, Северна Македонија"
	},
	{
		"lat": "41.3682443",
		"lon": "22.9643552",
		"name": "8",
		"historic": "boundary_stone",
		"address": "8, R1402, Старо Коњарево, Општина Ново Село, Југоисточен СР, Северна Македонија"
	},
	{
		"lat": "41.3692174",
		"lon": "22.9640182",
		"name": "9",
		"historic": "boundary_stone",
		"address": "9, R1402, Старо Коњарево, Општина Ново Село, Југоисточен СР, Северна Македонија"
	},
	{
		"lat": "41.3704535",
		"lon": "22.9637614",
		"name": "10",
		"historic": "boundary_stone",
		"address": "10, R1402, Старо Коњарево, Општина Ново Село, Југоисточен СР, Северна Македонија"
	},
	{
		"lat": "41.371345",
		"lon": "22.963565",
		"name": "11",
		"historic": "boundary_stone",
		"address": "11, R1402, Старо Коњарево, Општина Ново Село, Југоисточен СР, Северна Македонија"
	},
	{
		"lat": "41.3721284",
		"lon": "22.9631755",
		"name": "12",
		"historic": "boundary_stone",
		"address": "12, R1402, Старо Коњарево, Општина Ново Село, Југоисточен СР, Северна Македонија"
	},
	{
		"lat": "41.3728977",
		"lon": "22.9630541",
		"name": "13",
		"historic": "boundary_stone",
		"address": "13, R1402, Старо Коњарево, Општина Ново Село, Југоисточен СР, Северна Македонија"
	},
	{
		"lat": "41.3739433",
		"lon": "22.9628253",
		"name": "14",
		"historic": "boundary_stone",
		"address": "14, R1402, Старо Коњарево, Општина Ново Село, Југоисточен СР, Северна Македонија"
	},
	{
		"lat": "41.3755256",
		"lon": "22.9632889",
		"name": "15",
		"historic": "boundary_stone",
		"address": "15, R1402, Старо Коњарево, Општина Ново Село, Југоисточен СР, Северна Македонија"
	},
	{
		"lat": "41.3786524",
		"lon": "22.9621967",
		"name": "16",
		"historic": "boundary_stone",
		"address": "16, R1402, Старо Коњарево, Општина Ново Село, Југоисточен СР, Северна Македонија"
	},
	{
		"lat": "41.3839589",
		"lon": "22.9628726",
		"name": "19",
		"historic": "boundary_stone",
		"address": "19, A4, Ново Коњарево, Општина Ново Село, Југоисточен СР, Северна Македонија"
	},
	{
		"lat": "41.3859009",
		"lon": "22.9631941",
		"name": "20",
		"historic": "boundary_stone",
		"address": "20, A4, Ново Коњарево, Општина Ново Село, Југоисточен СР, Северна Македонија"
	},
	{
		"lat": "41.3891975",
		"lon": "22.9642834",
		"name": "21",
		"historic": "boundary_stone",
		"address": "21, A4, Ново Коњарево, Општина Ново Село, Југоисточен СР, Северна Македонија"
	},
	{
		"lat": "41.3931081",
		"lon": "22.9667134",
		"name": "22",
		"historic": "boundary_stone",
		"address": "22, A4, Ново Коњарево, Општина Ново Село, Југоисточен СР, Северна Македонија"
	},
	{
		"lat": "41.3964028",
		"lon": "22.966126",
		"name": "25",
		"historic": "boundary_stone",
		"address": "25, A4, Ново Коњарево, Општина Ново Село, Југоисточен СР, Северна Македонија"
	},
	{
		"lat": "41.4070803",
		"lon": "22.9615881",
		"name": "27",
		"historic": "boundary_stone",
		"address": "27, A4, Ново Коњарево, Општина Ново Село, Југоисточен СР, Северна Македонија"
	},
	{
		"lat": "41.4174975",
		"lon": "22.9520216",
		"name": "28",
		"historic": "boundary_stone",
		"address": "28, NS-01, Бадолен, Општина Ново Село, Југоисточен СР, Северна Македонија"
	},
	{
		"lat": "41.4400834",
		"lon": "22.9746504",
		"name": "30",
		"historic": "boundary_stone",
		"address": "30, NS-01, Бадолен, Општина Ново Село, Југоисточен СР, Северна Македонија"
	},
	{
		"lat": "42.1119645",
		"lon": "22.5770819",
		"name": "87",
		"historic": "boundary_stone",
		"address": "87, R1210, Саса, Општина Македонска Каменица, Источен СР, Северна Македонија"
	},
	{
		"lat": "42.1551091",
		"lon": "22.5104573",
		"name": "90",
		"historic": "boundary_stone",
		"address": "90, Пониква - Царев Врв - Руен - Рудник Саса, Саса, Општина Македонска Каменица, Источен СР, Северна Македонија"
	},
	{
		"lat": "42.1580093",
		"lon": "22.5162744",
		"name": "Руен",
		"natural": "peak",
		"historic": "boundary_stone",
		"address": "Пониква - Царев Врв - Руен - Рудник Саса, Саса, Општина Македонска Каменица, Источен СР, Северна Македонија"
	},
	{
		"lat": "42.1355189",
		"lon": "21.7200501",
		"name": "Zena",
		"historic": "monument",
		"address": "Zena, Иво Лола Рибар, Куманово, Општина Куманово, Североисточен СР, 1300, Северна Македонија"
	},
	{
		"lat": "42.0766913",
		"lon": "21.398848",
		"name": "Gradiste kaj s.Brazda",
		"historic": "archaeological_site",
		"address": "Gradiste kaj s.Brazda, R2239, Бразда, Општина Чучер Сандево, Скопски СР, Северна Македонија"
	},
	{
		"lat": "41.0904879",
		"lon": "21.9100136",
		"name": "Голем Козјак",
		"natural": "peak",
		"address": "Полчиште, Општина Прилеп, Пелагониски СР, Северна Македонија"
	},
	{
		"lat": "42.0017233",
		"lon": "21.4617772",
		"name": "Филип Втори",
		"historic": "monument",
		"address": "Филип Втори, Плоштад Автокоманда, Автокоманда, Гази Баба, Скопје, Општина Гази Баба, Град Скопје, Скопски СР, 1001, Северна Македонија"
	},
	{
		"lat": "40.8570205",
		"lon": "21.1195933",
		"name": "Маркова Нога",
		"historic": "monument",
		"address": "R1308, Долно Дупени, Општина Ресен, Пелагониски СР, Северна Македонија"
	},
	{
		"lat": "42.0162011",
		"lon": "22.3062563",
		"name": "Орлово Крило",
		"natural": "peak",
		"address": "Раткова Скала, Шталковица, Општина Пробиштип, Источен СР, Северна Македонија"
	},
	{
		"lat": "42.0593577",
		"lon": "22.3011923",
		"name": "Кола",
		"natural": "peak",
		"address": "Јамиште, Општина Пробиштип, Источен СР, Северна Македонија"
	},
	{
		"lat": "42.0253846",
		"lon": "22.4614942",
		"name": "Високи Камен",
		"natural": "peak",
		"address": "Ново Село, Костин Дол, Општина Кочани, Источен СР, Северна Македонија"
	},
	{
		"lat": "42.1366096",
		"lon": "22.3958478",
		"name": "Бандера",
		"natural": "peak",
		"address": "Станци, Општина Крива Паланка, Североисточен СР, Северна Македонија"
	},
	{
		"lat": "42.1534739",
		"lon": "22.4331842",
		"name": "Влашка Бачевина",
		"natural": "peak",
		"address": "Станци, Општина Крива Паланка, Североисточен СР, Северна Македонија"
	},
	{
		"lat": "42.1441195",
		"lon": "22.3716436",
		"name": "Бурлова Чука",
		"natural": "peak",
		"address": "Дренак, Општина Крива Паланка, Североисточен СР, Северна Македонија"
	},
	{
		"lat": "42.1270617",
		"lon": "22.4193655",
		"name": "Бабина Чешма",
		"natural": "peak",
		"address": "Дурачка Река, Општина Крива Паланка, Североисточен СР, Северна Македонија"
	},
	{
		"lat": "42.141192",
		"lon": "22.477902",
		"name": "Клефте",
		"natural": "peak",
		"address": "Пониква - Царев Врв - Руен - Рудник Саса, Саса, Општина Македонска Каменица, Источен СР, Северна Македонија"
	},
	{
		"lat": "42.0942698",
		"lon": "22.3658071",
		"name": "Јанкова Чешма",
		"natural": "spring",
		"address": "Јанкова Чешма, Пониква - Царев Врв - Руен - Рудник Саса, Емирица, Полаки, Општина Кратово, Североисточен СР, Северна Македонија"
	},
	{
		"lat": "42.112164",
		"lon": "21.5048576",
		"name": "Бел Камен",
		"natural": "peak",
		"address": "Раштак, Општина Гази Баба, Град Скопје, Скопски СР, Северна Македонија"
	},
	{
		"lat": "42.0863078",
		"lon": "21.5447689",
		"name": "Муратица",
		"natural": "peak",
		"address": "Виниче, Црешево, Општина Гази Баба, Град Скопје, Скопски СР, Северна Македонија"
	},
	{
		"lat": "42.0646436",
		"lon": "21.5532704",
		"name": "Ѓафа",
		"natural": "peak",
		"address": "Страчинци, Општина Гази Баба, Град Скопје, Скопски СР, Северна Македонија"
	},
	{
		"lat": "42.1433556",
		"lon": "21.4670063",
		"name": "Чука",
		"natural": "peak",
		"address": "Љубанци, Општина Бутел, Град Скопје, Скопски СР, Северна Македонија"
	},
	{
		"lat": "42.1266796",
		"lon": "21.5124107",
		"name": "Свињски Камен",
		"natural": "peak",
		"address": "Матејче, Општина Липково, Североисточен СР, Северна Македонија"
	},
	{
		"lat": "42.1726872",
		"lon": "21.4373947",
		"name": "Рамно",
		"natural": "peak",
		"address": "R2239, Брест, Бродец, Општина Чучер Сандево, Скопски СР, Северна Македонија"
	},
	{
		"lat": "42.0969445",
		"lon": "21.5315509",
		"name": "Човек",
		"natural": "peak",
		"address": "Булачани, Општина Гази Баба, Град Скопје, Скопски СР, Северна Македонија"
	},
	{
		"lat": "41.77098",
		"lon": "22.5638352",
		"name": "Бел Камен",
		"natural": "peak",
		"address": "Ново село, Општина Радовиш, Југоисточен СР, Северна Македонија"
	},
	{
		"lat": "42.1179278",
		"lon": "21.5199059",
		"name": "Свињски Камен",
		"natural": "peak",
		"address": "Раштак, Општина Гази Баба, Град Скопје, Скопски СР, Северна Македонија"
	},
	{
		"lat": "41.8732969",
		"lon": "21.2765387",
		"name": "Остреш",
		"natural": "peak",
		"address": "Нова Брезница, Општина Сопиште, Скопски СР, Северна Македонија"
	},
	{
		"lat": "41.7829901",
		"lon": "21.2798002",
		"name": "Мирска Вода",
		"natural": "peak",
		"address": "Брезница, Општина Македонски Брод, Југозападен СР, Северна Македонија"
	},
	{
		"lat": "41.6514026",
		"lon": "21.3709824",
		"name": "Даутица (2178)",
		"natural": "peak",
		"address": "Белица, Општина Македонски Брод, Југозападен СР, Северна Македонија"
	},
	{
		"lat": "41.8122066",
		"lon": "21.2666424",
		"name": "Зајачница",
		"natural": "peak",
		"address": "Јаболци, Општина Сопиште, Скопски СР, Северна Македонија"
	},
	{
		"lat": "41.7090897",
		"lon": "21.3449457",
		"name": "Иванов Камен",
		"natural": "peak",
		"address": "Белица, Општина Македонски Брод, Југозападен СР, Северна Македонија"
	},
	{
		"lat": "41.7315732",
		"lon": "21.3429135",
		"name": "Караџица",
		"natural": "peak",
		"address": "Црн Врв, Општина Студеничани, Скопски СР, Северна Македонија"
	},
	{
		"lat": "41.7444496",
		"lon": "21.3406542",
		"name": "Кота",
		"natural": "peak",
		"address": "Црн Врв, Општина Студеничани, Скопски СР, Северна Македонија"
	},
	{
		"lat": "41.7686906",
		"lon": "21.292898",
		"name": "Миленков Камен",
		"natural": "peak",
		"address": "Тажево, Општина Македонски Брод, Југозападен СР, Северна Македонија"
	},
	{
		"lat": "41.9106741",
		"lon": "21.2666681",
		"name": "Ситоица",
		"natural": "peak",
		"address": "Света Петка, Општина Сопиште, Скопски СР, Северна Македонија"
	},
	{
		"lat": "41.7107556",
		"lon": "21.3637426",
		"name": "Попово Брдо",
		"natural": "peak",
		"address": "Белица, Општина Македонски Брод, Југозападен СР, Северна Македонија"
	},
	{
		"lat": "41.5622191",
		"lon": "21.1050221",
		"name": "Jошков  Камен",
		"natural": "peak",
		"address": "Југозападен СР, Северна Македонија"
	},
	{
		"lat": "42.0622788",
		"lon": "22.4693309",
		"name": "Стришка",
		"natural": "peak",
		"address": "Небојани, Полаки, Општина Кочани, Источен СР, Северна Македонија"
	},
	{
		"lat": "42.1541633",
		"lon": "22.3393833",
		"name": "Костадиница",
		"natural": "peak",
		"address": "Бела вода, Др. Наско Тамбурков, Мартиница, Крива Паланка, Општина Крива Паланка, Североисточен СР, 1330, Северна Македонија"
	},
	{
		"lat": "42.0049667",
		"lon": "22.4068462",
		"name": "Јастребничка Чука",
		"natural": "peak",
		"address": "Јастребник, Општина Кочани, Источен СР, Северна Македонија"
	},
	{
		"lat": "42.0147242",
		"lon": "22.3824703",
		"name": "Чурилска Чука",
		"natural": "peak",
		"address": "Јастребник, Општина Кочани, Источен СР, Северна Македонија"
	},
	{
		"lat": "42.1143821",
		"lon": "22.2547542",
		"name": "Бреза",
		"natural": "peak",
		"address": "R29271, Нежилово, Горно Кратово, Општина Кратово, Североисточен СР, Северна Македонија"
	},
	{
		"lat": "41.6377383",
		"lon": "20.6654006",
		"name": "Манастириште",
		"natural": "peak",
		"address": "Сенце, Општина Маврово и Ростуша, Полошки СР, Северна Македонија"
	},
	{
		"lat": "41.6062683",
		"lon": "20.6626345",
		"name": "Говедарник",
		"natural": "peak",
		"address": "Галичник, Општина Маврово и Ростуша, Полошки СР, Северна Македонија"
	},
	{
		"lat": "41.5690008",
		"lon": "20.568895",
		"name": "Црвена Плоча",
		"natural": "peak",
		"address": "Скудриње, Општина Маврово и Ростуша, Полошки СР, Северна Македонија"
	},
	{
		"lat": "41.4927312",
		"lon": "20.6208033",
		"name": "Стогово",
		"natural": "peak",
		"address": "Броштица, Општина Центар Жупа, Југозападен СР, Северна Македонија"
	},
	{
		"lat": "41.8989095",
		"lon": "21.8363344",
		"name": "Градиште (861)",
		"natural": "peak",
		"address": "Метеоролошка станица „Ѓуриште“, R105, Трстеник, Општина Свети Николе, Вардарски СР, Северна Македонија"
	},
	{
		"lat": "41.0294033",
		"lon": "21.7739331",
		"name": "Орешец",
		"natural": "peak",
		"address": "Будимирци, Општина Новаци, Пелагониски СР, Северна Македонија"
	},
	{
		"lat": "41.008292",
		"lon": "21.7007195",
		"name": "Џаут",
		"natural": "peak",
		"address": "Петалино, Општина Новаци, Пелагониски СР, Северна Македонија"
	},
	{
		"lat": "41.0044057",
		"lon": "21.6819226",
		"name": "Борчето",
		"natural": "peak",
		"address": "R2338, Скочивир, Општина Новаци, Пелагониски СР, Северна Македонија"
	},
	{
		"lat": "41.5416482",
		"lon": "21.2379375",
		"name": "Девини Кули",
		"historic": "ruins",
		"address": "Девини Кули, R1106, Девич, Општина Македонски Брод, Југозападен СР, 6530, Северна Македонија"
	},
	{
		"lat": "41.5847028",
		"lon": "21.10294",
		"name": "Старци",
		"natural": "peak",
		"address": "Chaushojc, Ново Село - Светораче, Рабетино, Општина Кичево, Југозападен СР, 6254, Северна Македонија"
	},
	{
		"lat": "41.3307688",
		"lon": "23.0030907",
		"name": "Лозен",
		"natural": "peak",
		"address": "11, \u003eΑδιέξοδο, Δήμος Σιντικής, Περιφερειακή Ενότητα Σερρών, Περιφέρεια Κεντρικής Μακεδονίας, Αποκεντρωμένη Διοίκηση Μακεδονίας - Θράκης, Ελλάς"
	},
	{
		"lat": "41.3335444",
		"lon": "22.9916057",
		"name": "10",
		"historic": "boundary_stone",
		"address": "10, \u003eΑδιέξοδο, Δήμος Σιντικής, Περιφερειακή Ενότητα Σερρών, Περιφέρεια Κεντρικής Μακεδονίας, Αποκεντρωμένη Διοίκηση Μακεδονίας - Θράκης, Ελλάς"
	},
	{
		"lat": "41.3295178",
		"lon": "23.0045415",
		"name": "11",
		"historic": "boundary_stone",
		"address": "11, \u003eΑδιέξοδο, Δήμος Σιντικής, Περιφερειακή Ενότητα Σερρών, Περιφέρεια Κεντρικής Μακεδονίας, Αποκεντρωμένη Διοίκηση Μακεδονίας - Θράκης, Ελλάς"
	},
	{
		"lat": "41.3297879",
		"lon": "23.015062",
		"name": "12",
		"historic": "boundary_stone",
		"address": "12, \u003eΑδιέξοδο, Δήμος Σιντικής, Περιφερειακή Ενότητα Σερρών, Περιφέρεια Κεντρικής Μακεδονίας, Αποκεντρωμένη Διοίκηση Μακεδονίας - Θράκης, Ελλάς"
	},
	{
		"lat": "41.3301726",
		"lon": "23.016135",
		"name": "13",
		"historic": "boundary_stone",
		"address": "13, \u003eΑδιέξοδο, Δήμος Σιντικής, Περιφερειακή Ενότητα Σερρών, Περιφέρεια Κεντρικής Μακεδονίας, Αποκεντρωμένη Διοίκηση Μακεδονίας - Θράκης, Ελλάς"
	},
	{
		"lat": "41.3305055",
		"lon": "23.0210206",
		"name": "14",
		"historic": "boundary_stone",
		"address": "14, \u003eΑδιέξοδο, Δήμος Σιντικής, Περιφερειακή Ενότητα Σερρών, Περιφέρεια Κεντρικής Μακεδονίας, Αποκεντρωμένη Διοίκηση Μακεδονίας - Θράκης, Ελλάς"
	},
	{
		"lat": "41.3339144",
		"lon": "23.0277237",
		"name": "15",
		"historic": "boundary_stone",
		"address": "15, \u003eΑδιέξοδο, Δήμος Σιντικής, Περιφερειακή Ενότητα Σερρών, Περιφέρεια Κεντρικής Μακεδονίας, Αποκεντρωμένη Διοίκηση Μακεδονίας - Θράκης, Ελλάς"
	},
	{
		"lat": "41.3325627",
		"lon": "23.0322889",
		"name": "16",
		"historic": "boundary_stone",
		"address": "16, \u003eΑδιέξοδο, Δήμος Σιντικής, Περιφερειακή Ενότητα Σερρών, Περιφέρεια Κεντρικής Μακεδονίας, Αποκεντρωμένη Διοίκηση Μακεδονίας - Θράκης, Ελλάς"
	},
	{
		"lat": "41.3318912",
		"lon": "23.0363949",
		"name": "17",
		"historic": "boundary_stone",
		"address": "17, \u003eΑδιέξοδο, Δήμος Σιντικής, Περιφερειακή Ενότητα Σερρών, Περιφέρεια Κεντρικής Μακεδονίας, Αποκεντρωμένη Διοίκηση Μακεδονίας - Θράκης, Ελλάς"
	},
	{
		"lat": "41.3322397",
		"lon": "23.0380441",
		"name": "18",
		"historic": "boundary_stone",
		"address": "18, \u003eΑδιέξοδο, Δήμος Σιντικής, Περιφερειακή Ενότητα Σερρών, Περιφέρεια Κεντρικής Μακεδονίας, Αποκεντρωμένη Διοίκηση Μακεδονίας - Θράκης, Ελλάς"
	},
	{
		"lat": "41.3267889",
		"lon": "23.0538893",
		"name": "19",
		"historic": "boundary_stone",
		"address": "19, \u003eΦυλάκιο 1777, Δήμος Σιντικής, Περιφερειακή Ενότητα Σερρών, Περιφέρεια Κεντρικής Μακεδονίας, Αποκεντρωμένη Διοίκηση Μακεδονίας - Θράκης, Ελλάς"
	},
	{
		"lat": "41.3404886",
		"lon": "22.9284006",
		"name": "2",
		"historic": "boundary_stone",
		"address": "2, \u003eκορυφή Τούμπα, Δήμος Σιντικής, Περιφερειακή Ενότητα Σερρών, Περιφέρεια Κεντρικής Μακεδονίας, Αποκεντρωμένη Διοίκηση Μακεδονίας - Θράκης, Ελλάς"
	},
	{
		"lat": "41.324476",
		"lon": "23.0574563",
		"name": "20",
		"historic": "boundary_stone",
		"address": "20, \u003eΦυλάκιο 1777, Δήμος Σιντικής, Περιφερειακή Ενότητα Σερρών, Περιφέρεια Κεντρικής Μακεδονίας, Αποκεντρωμένη Διοίκηση Μακεδονίας - Θράκης, Ελλάς"
	},
	{
		"lat": "41.3232178",
		"lon": "23.066945",
		"name": "21",
		"historic": "boundary_stone",
		"address": "21, \u003eΦυλάκιο 1777, Δήμος Σιντικής, Περιφερειακή Ενότητα Σερρών, Περιφέρεια Κεντρικής Μακεδονίας, Αποκεντρωμένη Διοίκηση Μακεδονίας - Θράκης, Ελλάς"
	},
	{
		"lat": "41.3167814",
		"lon": "23.1044723",
		"name": "23",
		"historic": "boundary_stone",
		"address": "23, \u003eΟμορφοπλαγιά, Δήμος Σιντικής, Περιφερειακή Ενότητα Σερρών, Περιφέρεια Κεντρικής Μακεδονίας, Αποκεντρωμένη Διοίκηση Μακεδονίας - Θράκης, Ελλάς"
	},
	{
		"lat": "41.3205848",
		"lon": "23.1205954",
		"name": "24",
		"historic": "boundary_stone",
		"address": "24, \u003eκορυφή Σιδηρόπετρα, Δήμος Σιντικής, Περιφερειακή Ενότητα Σερρών, Περιφέρεια Κεντρικής Μακεδονίας, Αποκεντρωμένη Διοίκηση Μακεδονίας - Θράκης, Ελλάς"
	},
	{
		"lat": "41.3202751",
		"lon": "23.1286271",
		"name": "25",
		"historic": "boundary_stone",
		"address": "25, \u003eΚορυφή Σιδηρόπετρα, Δήμος Σιντικής, Περιφερειακή Ενότητα Σερρών, Περιφέρεια Κεντρικής Μακεδονίας, Αποκεντρωμένη Διοίκηση Μακεδονίας - Θράκης, Ελλάς"
	},
	{
		"lat": "41.3199092",
		"lon": "23.1470005",
		"name": "26",
		"historic": "boundary_stone",
		"address": "26, \u003eΚορυφή Σιδηρόπετρα, Δήμος Σιντικής, Περιφερειακή Ενότητα Σερρών, Περιφέρεια Κεντρικής Μακεδονίας, Αποκεντρωμένη Διοίκηση Μακεδονίας - Θράκης, Ελλάς"
	},
	{
		"lat": "41.3218013",
		"lon": "23.1598727",
		"name": "27",
		"historic": "boundary_stone",
		"address": "27, \u003eΚορυφή Σιδηρόπετρα, Δήμος Σιντικής, Περιφερειακή Ενότητα Σερρών, Περιφέρεια Κεντρικής Μακεδονίας, Αποκεντρωμένη Διοίκηση Μακεδονίας - Θράκης, Ελλάς"
	},
	{
		"lat": "41.3211705",
		"lon": "23.1746442",
		"name": "28",
		"historic": "boundary_stone",
		"address": "28, \u003eΑδιέξοδο, Δήμος Σιντικής, Περιφερειακή Ενότητα Σερρών, Περιφέρεια Κεντρικής Μακεδονίας, Αποκεντρωμένη Διοίκηση Μακεδονίας - Θράκης, Ελλάς"
	},
	{
		"lat": "41.3187336",
		"lon": "23.1800334",
		"name": "29",
		"historic": "boundary_stone",
		"address": "29, \u003eΑδιέξοδο, Δήμος Σιντικής, Περιφερειακή Ενότητα Σερρών, Περιφέρεια Κεντρικής Μακεδονίας, Αποκεντρωμένη Διοίκηση Μακεδονίας - Θράκης, Ελλάς"
	},
	{
		"lat": "41.3404433",
		"lon": "22.9317378",
		"name": "3",
		"historic": "boundary_stone",
		"address": "3, \u003eκορυφή Τούμπα, Δήμος Σιντικής, Περιφερειακή Ενότητα Σερρών, Περιφέρεια Κεντρικής Μακεδονίας, Αποκεντρωμένη Διοίκηση Μακεδονίας - Θράκης, Ελλάς"
	},
	{
		"lat": "41.3226882",
		"lon": "23.1888855",
		"name": "30",
		"historic": "boundary_stone",
		"address": "30, \u003eΑδιέξοδο, Δήμος Σιντικής, Περιφερειακή Ενότητα Σερρών, Περιφέρεια Κεντρικής Μακεδονίας, Αποκεντρωμένη Διοίκηση Μακεδονίας - Θράκης, Ελλάς"
	},
	{
		"lat": "41.3225626",
		"lon": "23.198594",
		"name": "31",
		"historic": "boundary_stone",
		"address": "31, \u003eΑδιέξοδο, Δήμος Σιντικής, Περιφερειακή Ενότητα Σερρών, Περιφέρεια Κεντρικής Μακεδονίας, Αποκεντρωμένη Διοίκηση Μακεδονίας - Θράκης, Ελλάς"
	},
	{
		"lat": "41.3259306",
		"lon": "23.2059235",
		"name": "32",
		"historic": "boundary_stone",
		"address": "32, \u003eΑδιέξοδο, Δήμος Σιντικής, Περιφερειακή Ενότητα Σερρών, Περιφέρεια Κεντρικής Μακεδονίας, Αποκεντρωμένη Διοίκηση Μακεδονίας - Θράκης, Ελλάς"
	},
	{
		"lat": "41.3311887",
		"lon": "23.2166658",
		"name": "33",
		"historic": "boundary_stone",
		"address": "33, \u003eΑδιέξοδο, Δήμος Σιντικής, Περιφερειακή Ενότητα Σερρών, Περιφέρεια Κεντρικής Μακεδονίας, Αποκεντρωμένη Διοίκηση Μακεδονίας - Θράκης, Ελλάς"
	},
	{
		"lat": "41.3379047",
		"lon": "23.225336",
		"name": "34",
		"historic": "boundary_stone",
		"address": "34, \u003eΠαπαδοπούλα, Δήμος Σιντικής, Περιφερειακή Ενότητα Σερρών, Περιφέρεια Κεντρικής Μακεδονίας, Αποκεντρωμένη Διοίκηση Μακεδονίας - Θράκης, Ελλάς"
	},
	{
		"lat": "41.3408264",
		"lon": "23.225256",
		"name": "35",
		"historic": "boundary_stone",
		"address": "35, \u003eΠαπαδοπούλα, Δήμος Σιντικής, Περιφερειακή Ενότητα Σερρών, Περιφέρεια Κεντρικής Μακεδονίας, Αποκεντρωμένη Διοίκηση Μακεδονίας - Θράκης, Ελλάς"
	},
	{
		"lat": "41.3563888",
		"lon": "23.2297398",
		"name": "37",
		"historic": "boundary_stone",
		"address": "37, \u003eΑδιέξοδο, Δήμος Σιντικής, Περιφερειακή Ενότητα Σερρών, Περιφέρεια Κεντρικής Μακεδονίας, Αποκεντρωμένη Διοίκηση Μακεδονίας - Θράκης, Ελλάς"
	},
	{
		"lat": "41.3677165",
		"lon": "23.2261314",
		"name": "38",
		"historic": "boundary_stone",
		"address": "38, \u003eΑδιέξοδο, Δήμος Σιντικής, Περιφερειακή Ενότητα Σερρών, Περιφέρεια Κεντρικής Μακεδονίας, Αποκεντρωμένη Διοίκηση Μακεδονίας - Θράκης, Ελλάς"
	},
	{
		"lat": "41.3709718",
		"lon": "23.2315337",
		"name": "39",
		"historic": "boundary_stone",
		"address": "39, \u003eΑδιέξοδο, Δήμος Σιντικής, Περιφερειακή Ενότητα Σερρών, Περιφέρεια Κεντρικής Μακεδονίας, Αποκεντρωμένη Διοίκηση Μακεδονίας - Θράκης, Ελλάς"
	},
	{
		"lat": "41.3399173",
		"lon": "22.9350657",
		"name": "4",
		"historic": "boundary_stone",
		"address": "4, \u003eκορυφή Τούμπα, Δήμος Σιντικής, Περιφερειακή Ενότητα Σερρών, Περιφέρεια Κεντρικής Μακεδονίας, Αποκεντρωμένη Διοίκηση Μακεδονίας - Θράκης, Ελλάς"
	},
	{
		"lat": "41.3750814",
		"lon": "23.2317678",
		"name": "40",
		"historic": "boundary_stone",
		"address": "40, \u003eΑδιέξοδο, Δήμος Σιντικής, Περιφερειακή Ενότητα Σερρών, Περιφέρεια Κεντρικής Μακεδονίας, Αποκεντρωμένη Διοίκηση Μακεδονίας - Θράκης, Ελλάς"
	},
	{
		"lat": "41.376885",
		"lon": "23.2396787",
		"name": "41",
		"historic": "boundary_stone",
		"address": "41, \u003eΑδιέξοδο, Δήμος Σιντικής, Περιφερειακή Ενότητα Σερρών, Περιφέρεια Κεντρικής Μακεδονίας, Αποκεντρωμένη Διοίκηση Μακεδονίας - Θράκης, Ελλάς"
	},
	{
		"lat": "41.3789232",
		"lon": "23.2425173",
		"name": "42",
		"historic": "boundary_stone",
		"address": "42, \u003eΑδιέξοδο, Δήμος Σιντικής, Περιφερειακή Ενότητα Σερρών, Περιφέρεια Κεντρικής Μακεδονίας, Αποκεντρωμένη Διοίκηση Μακεδονίας - Θράκης, Ελλάς"
	},
	{
		"lat": "41.3808775",
		"lon": "23.2443646",
		"name": "43",
		"historic": "boundary_stone",
		"address": "43, \u003eΑδιέξοδο, Δήμος Σιντικής, Περιφερειακή Ενότητα Σερρών, Περιφέρεια Κεντρικής Μακεδονίας, Αποκεντρωμένη Διοίκηση Μακεδονίας - Θράκης, Ελλάς"
	},
	{
		"lat": "41.3850179",
		"lon": "23.2601115",
		"name": "46",
		"historic": "boundary_stone",
		"address": "46, \u003eΑδιέξοδο, Δήμος Σιντικής, Περιφερειακή Ενότητα Σερρών, Περιφέρεια Κεντρικής Μακεδονίας, Αποκεντρωμένη Διοίκηση Μακεδονίας - Θράκης, Ελλάς"
	},
	{
		"lat": "41.3862109",
		"lon": "23.2639023",
		"name": "47",
		"historic": "boundary_stone",
		"address": "47, \u003eΑδιέξοδο, Δήμος Σιντικής, Περιφερειακή Ενότητα Σερρών, Περιφέρεια Κεντρικής Μακεδονίας, Αποκεντρωμένη Διοίκηση Μακεδονίας - Θράκης, Ελλάς"
	},
	{
		"lat": "41.3896195",
		"lon": "23.2644844",
		"name": "48",
		"historic": "boundary_stone",
		"address": "48, \u003eΑδιέξοδο, Δήμος Σιντικής, Περιφερειακή Ενότητα Σερρών, Περιφέρεια Κεντρικής Μακεδονίας, Αποκεντρωμένη Διοίκηση Μακεδονίας - Θράκης, Ελλάς"
	},
	{
		"lat": "41.3902583",
		"lon": "23.2667909",
		"name": "49",
		"historic": "boundary_stone",
		"address": "49, \u003eΑδιέξοδο, Δήμος Σιντικής, Περιφερειακή Ενότητα Σερρών, Περιφέρεια Κεντρικής Μακεδονίας, Αποκεντρωμένη Διοίκηση Μακεδονίας - Θράκης, Ελλάς"
	},
	{
		"lat": "41.3382814",
		"lon": "22.9392448",
		"name": "5",
		"historic": "boundary_stone",
		"address": "5, \u003eκορυφή Τούμπα, Δήμος Σιντικής, Περιφερειακή Ενότητα Σερρών, Περιφέρεια Κεντρικής Μακεδονίας, Αποκεντρωμένη Διοίκηση Μακεδονίας - Θράκης, Ελλάς"
	},
	{
		"lat": "41.3912331",
		"lon": "23.2694662",
		"name": "50",
		"historic": "boundary_stone",
		"address": "50, \u003eΑδιέξοδο, Δήμος Σιντικής, Περιφερειακή Ενότητα Σερρών, Περιφέρεια Κεντρικής Μακεδονίας, Αποκεντρωμένη Διοίκηση Μακεδονίας - Θράκης, Ελλάς"
	},
	{
		"lat": "41.4003143",
		"lon": "23.2837785",
		"name": "51",
		"historic": "boundary_stone",
		"address": "51, \u003eΑδιέξοδο, Δήμος Σιντικής, Περιφερειακή Ενότητα Σερρών, Περιφέρεια Κεντρικής Μακεδονίας, Αποκεντρωμένη Διοίκηση Μακεδονίας - Θράκης, Ελλάς"
	},
	{
		"lat": "41.3992957",
		"lon": "23.2855878",
		"name": "52",
		"historic": "boundary_stone",
		"address": "52, \u003eΑδιέξοδο, Δήμος Σιντικής, Περιφερειακή Ενότητα Σερρών, Περιφέρεια Κεντρικής Μακεδονίας, Αποκεντρωμένη Διοίκηση Μακεδονίας - Θράκης, Ελλάς"
	},
	{
		"lat": "41.400227",
		"lon": "23.2882881",
		"name": "53",
		"historic": "boundary_stone",
		"address": "53, \u003eΑδιέξοδο, Δήμος Σιντικής, Περιφερειακή Ενότητα Σερρών, Περιφέρεια Κεντρικής Μακεδονίας, Αποκεντρωμένη Διοίκηση Μακεδονίας - Θράκης, Ελλάς"
	},
	{
		"lat": "41.4006885",
		"lon": "23.2920236",
		"name": "54",
		"historic": "boundary_stone",
		"address": "54, \u003eΑδιέξοδο, Δήμος Σιντικής, Περιφερειακή Ενότητα Σερρών, Περιφέρεια Κεντρικής Μακεδονίας, Αποκεντρωμένη Διοίκηση Μακεδονίας - Θράκης, Ελλάς"
	},
	{
		"lat": "41.3999633",
		"lon": "23.2969695",
		"name": "55",
		"historic": "boundary_stone",
		"address": "55, \u003eΑδιέξοδο, Δήμος Σιντικής, Περιφερειακή Ενότητα Σερρών, Περιφέρεια Κεντρικής Μακεδονίας, Αποκεντρωμένη Διοίκηση Μακεδονίας - Θράκης, Ελλάς"
	},
	{
		"lat": "41.4012772",
		"lon": "23.2974506",
		"name": "56",
		"historic": "boundary_stone",
		"address": "56, \u003eΑδιέξοδο, Δήμος Σιντικής, Περιφερειακή Ενότητα Σερρών, Περιφέρεια Κεντρικής Μακεδονίας, Αποκεντρωμένη Διοίκηση Μακεδονίας - Θράκης, Ελλάς"
	},
	{
		"lat": "41.4014393",
		"lon": "23.3060729",
		"name": "57",
		"historic": "boundary_stone",
		"address": "57, \u003eΑδιέξοδο, Δήμος Σιντικής, Περιφερειακή Ενότητα Σερρών, Περιφέρεια Κεντρικής Μακεδονίας, Αποκεντρωμένη Διοίκηση Μακεδονίας - Θράκης, Ελλάς"
	},
	{
		"lat": "41.3683832",
		"lon": "23.3385347",
		"name": "66",
		"historic": "boundary_stone",
		"address": "66, Θεσσαλονίκη - Προμαχώνας, Προμαχώνας, Δήμος Σιντικής, Περιφερειακή Ενότητα Σερρών, Περιφέρεια Κεντρικής Μακεδονίας, Αποκεντρωμένη Διοίκηση Μακεδονίας - Θράκης, 623 00, Ελλάς"
	},
	{
		"lat": "41.3635213",
		"lon": "23.3404933",
		"name": "67",
		"historic": "boundary_stone",
		"address": "67, Θεσσαλονίκη - Προμαχώνας, Προμαχώνας, Δήμος Σιντικής, Περιφερειακή Ενότητα Σερρών, Περιφέρεια Κεντρικής Μακεδονίας, Αποκεντρωμένη Διοίκηση Μακεδονίας - Θράκης, 623 00, Ελλάς"
	},
	{
		"lat": "41.333749",
		"lon": "22.966302",
		"name": "7",
		"historic": "boundary_stone",
		"address": "7, \u003eΑδιέξοδο, Δήμος Σιντικής, Περιφερειακή Ενότητα Σερρών, Περιφέρεια Κεντρικής Μακεδονίας, Αποκεντρωμένη Διοίκηση Μακεδονίας - Θράκης, Ελλάς"
	},
	{
		"lat": "41.3328028",
		"lon": "22.9726245",
		"name": "8",
		"historic": "boundary_stone",
		"address": "8, \u003eΑδιέξοδο, Δήμος Σιντικής, Περιφερειακή Ενότητα Σερρών, Περιφέρεια Κεντρικής Μακεδονίας, Αποκεντρωμένη Διοίκηση Μακεδονίας - Θράκης, Ελλάς"
	},
	{
		"lat": "41.3348336",
		"lon": "22.9806807",
		"name": "9",
		"historic": "boundary_stone",
		"address": "9, Gabrene Tumbata, Габрене, Петрич, Благоевград, 2898, България"
	},
	{
		"lat": "41.3403604",
		"lon": "22.9353265",
		"name": "2",
		"historic": "boundary_stone",
		"address": "2, R1402, Старо Коњарево, Општина Ново Село, Југоисточен СР, Северна Македонија"
	},
	{
		"lat": "41.3524899",
		"lon": "22.9527497",
		"name": "3",
		"historic": "boundary_stone",
		"address": "3, R1402, Старо Коњарево, Општина Ново Село, Југоисточен СР, Северна Македонија"
	},
	{
		"lat": "41.3360256",
		"lon": "22.9512304",
		"name": "6",
		"historic": "boundary_stone",
		"address": "6, \u003eκορυφή Τούμπα, Δήμος Σιντικής, Περιφερειακή Ενότητα Σερρών, Περιφέρεια Κεντρικής Μακεδονίας, Αποκεντρωμένη Διοίκηση Μακεδονίας - Θράκης, Ελλάς"
	},
	{
		"lat": "41.350697",
		"lon": "23.2312102",
		"name": "36",
		"historic": "boundary_stone",
		"address": "36, \u003eΑδιέξοδο, Δήμος Σιντικής, Περιφερειακή Ενότητα Σερρών, Περιφέρεια Κεντρικής Μακεδονίας, Αποκεντρωμένη Διοίκηση Μακεδονίας - Θράκης, Ελλάς"
	},
	{
		"lat": "41.3816842",
		"lon": "23.2520896",
		"name": "44",
		"historic": "boundary_stone",
		"address": "44, \u003eΑδιέξοδο, Δήμος Σιντικής, Περιφερειακή Ενότητα Σερρών, Περιφέρεια Κεντρικής Μακεδονίας, Αποκεντρωμένη Διοίκηση Μακεδονίας - Θράκης, Ελλάς"
	},
	{
		"lat": "41.3821427",
		"lon": "23.2564457",
		"name": "45",
		"historic": "boundary_stone",
		"address": "45, \u003eΑδιέξοδο, Δήμος Σιντικής, Περιφερειακή Ενότητα Σερρών, Περιφέρεια Κεντρικής Μακεδονίας, Αποκεντρωμένη Διοίκηση Μακεδονίας - Θράκης, Ελλάς"
	},
	{
		"lat": "41.3846889",
		"lon": "23.3302173",
		"name": "64",
		"historic": "boundary_stone",
		"address": "64, \u003eΑδιέξοδο, Δήμος Σιντικής, Περιφερειακή Ενότητα Σερρών, Περιφέρεια Κεντρικής Μακεδονίας, Αποκεντρωμένη Διοίκηση Μακεδονίας - Θράκης, Ελλάς"
	},
	{
		"lat": "41.3866336",
		"lon": "23.3290025",
		"name": "63",
		"historic": "boundary_stone",
		"address": "63, \u003eΑδιέξοδο, Δήμος Σιντικής, Περιφερειακή Ενότητα Σερρών, Περιφέρεια Κεντρικής Μακεδονίας, Αποκεντρωμένη Διοίκηση Μακεδονίας - Θράκης, Ελλάς"
	},
	{
		"lat": "41.5754562",
		"lon": "20.6609975",
		"name": "Старци",
		"natural": "peak",
		"address": "Сушица, Општина Маврово и Ростуша, Полошки СР, Северна Македонија"
	},
	{
		"lat": "42.2006774",
		"lon": "21.4008456",
		"name": "Росен",
		"natural": "peak",
		"address": "R2239, Брест, Кучевиште, Општина Чучер Сандево, Скопски СР, Северна Македонија"
	},
	{
		"lat": "41.7894649",
		"lon": "22.96345",
		"name": "Кадийца / Кадиица",
		"natural": "peak",
		"address": "България"
	},
	{
		"lat": "41.7691063",
		"lon": "23.0083227",
		"name": "Ильов връх / Иљов Врв",
		"natural": "peak",
		"address": "България"
	},
	{
		"lat": "42.1355778",
		"lon": "21.7194275",
		"name": "Јосип Броз - Тито",
		"historic": "monument",
		"address": "Јосип Броз - Тито, Иво Лола Рибар, Куманово, Општина Куманово, Североисточен СР, 1300, Северна Македонија"
	},
	{
		"lat": "41.7456432",
		"lon": "22.6115795",
		"name": "Кара Тепе",
		"natural": "peak",
		"address": "Смиланци, Општина Радовиш, Југоисточен СР, Северна Македонија"
	},
	{
		"lat": "41.4530919",
		"lon": "21.6077436",
		"name": "Ќавено",
		"natural": "peak",
		"address": "Северна Македонија"
	},
	{
		"lat": "41.2274338",
		"lon": "21.0331087",
		"name": "Сталев камен (1998)",
		"natural": "peak",
		"address": "Северна Македонија"
	},
	{
		"lat": "41.3240008",
		"lon": "20.9546893",
		"name": "Лиска",
		"natural": "peak",
		"address": "Северна Македонија"
	},
	{
		"lat": "41.4094203",
		"lon": "22.2541295",
		"name": "Марков Град",
		"historic": "ruins",
		"address": "Марков Град, Пријателство - тунел 1 демир капиjа, Челeвец, Корешница, Општина Демир Капија, Вардарски СР, 1442, Северна Македонија"
	},
	{
		"lat": "41.0442119",
		"lon": "21.1083007",
		"name": "Вртешка",
		"natural": "peak",
		"address": "Ѓавато, Општина Битола, Пелагониски СР, Северна Македонија"
	},
	{
		"lat": "41.8188564",
		"lon": "22.8115675",
		"name": "Беjазтепе",
		"natural": "peak",
		"address": "Источен СР, Северна Македонија"
	},
	{
		"lat": "42.2782511",
		"lon": "21.8500367",
		"name": "Меморијален центар АСНОМ",
		"historic": "memorial",
		"address": "Меморијален центар АСНОМ, R1207, Алгуња, Пелинце, Општина Старо Нагоричане, Североисточен СР, Северна Македонија"
	},
	{
		"lat": "41.794932",
		"lon": "20.9108574",
		"name": "Sahat Kula",
		"historic": "monument",
		"address": "Sahat Kula, Никола Парапунов, Гостивар, Општина Гостивар, Полошки СР, 1230, Северна Македонија"
	},
	{
		"lat": "41.7438258",
		"lon": "22.4991608",
		"name": "Џумаја",
		"natural": "peak",
		"address": "Козбунар, Општина Радовиш, Југоисточен СР, Северна Македонија"
	},
	{
		"lat": "41.6875269",
		"lon": "22.5365593",
		"name": "Извенден",
		"natural": "peak",
		"address": "Држани, Општина Радовиш, Југоисточен СР, Северна Македонија"
	},
	{
		"lat": "42.1070817",
		"lon": "21.1543224",
		"name": "Орашко Кале",
		"historic": "ruins",
		"address": "Орашко Кале, R2234, Нераште, Општина Јегуновце, Полошки СР, Северна Македонија"
	},
	{
		"lat": "41.5119269",
		"lon": "20.9702432",
		"name": "Саат кула",
		"historic": "monument",
		"address": "Саат кула, Јане Сандански, Бичинци, Кичево, Општина Кичево, Југозападен СР, 6250, Северна Македонија"
	},
	{
		"lat": "41.7140782",
		"lon": "21.7840512",
		"name": "Саат кула",
		"historic": "monument",
		"address": "Саат кула, 8-ми Септември, Велес, Општина Велес, Вардарски СР, 1400, Северна Македонија"
	},
	{
		"lat": "41.2775784",
		"lon": "22.4937679",
		"name": "Isar / Idomenae",
		"historic": "archaeological_site",
		"address": "Isar / Idomenae, R1401, Марвинци, Општина Валандово, Југоисточен СР, 2463, Северна Македонија"
	},
	{
		"lat": "41.3367577",
		"lon": "20.7317228",
		"name": "Орли Врв",
		"natural": "peak",
		"address": "Југозападен СР, Северна Македонија"
	},
	{
		"lat": "41.124154",
		"lon": "20.8527535",
		"name": "Чардачница",
		"natural": "spring",
		"address": "Чардачница, Велгошти, Општина Охрид, Југозападен СР, 6000, Северна Македонија"
	},
	{
		"lat": "41.1026685",
		"lon": "20.8148154",
		"name": "Билјанини Извори",
		"natural": "spring",
		"tourism": "attraction",
		"address": "Билјанини Извори, Булевар Свети Наум Охридски, Беј Бунар, Охрид, Општина Охрид, Југозападен СР, 6000, Северна Македонија"
	},
	{
		"lat": "41.0738678",
		"lon": "20.8043628",
		"name": "Св. Стефан",
		"natural": "cave_entrance",
		"tourism": "attraction",
		"address": "Св. Стефан, R1301, Свети Стефан, Шипокно, Општина Охрид, Југозападен СР, 6000, Северна Македонија"
	},
	{
		"lat": "41.7640328",
		"lon": "20.8369638",
		"name": "Вардар",
		"natural": "spring",
		"address": "Вардар, R29279, Вруток, Општина Гостивар, Полошки СР, Северна Македонија"
	},
	{
		"lat": "41.3618756",
		"lon": "21.5400246",
		"name": "Тапанче",
		"natural": "peak",
		"address": "Маркови Кули, Маркукуле, Прилеп (Околина), Општина Прилеп, Пелагониски СР, 7513, Северна Македонија"
	},
	{
		"lat": "41.4060366",
		"lon": "21.5419363",
		"name": "Златоврв",
		"natural": "peak",
		"address": "Трескавец, Прилеп-Трескавец, Прилеп (Околина), Општина Прилеп, Пелагониски СР, 7513, Северна Македонија"
	},
	{
		"lat": "41.4113833",
		"lon": "21.5693843",
		"name": "Единак",
		"natural": "peak",
		"address": "Дабница, Општина Прилеп, Пелагониски СР, Северна Македонија"
	},
	{
		"lat": "41.4101293",
		"lon": "21.5594145",
		"name": "Липа",
		"natural": "peak",
		"address": "Пелагониски СР, Северна Македонија"
	},
	{
		"lat": "41.3868226",
		"lon": "21.5766129",
		"name": "Кукул / Камена Глава",
		"natural": "peak",
		"address": "Три Багреми, Тризла 2, Прилеп, Општина Прилеп, Пелагониски СР, 7510, Северна Македонија"
	},
	{
		"lat": "41.3372429",
		"lon": "21.2838227",
		"name": "Кале",
		"natural": "peak",
		"address": "Манастириште, Врбоец, Општина Крушево, Пелагониски СР, 7524, Северна Македонија"
	},
	{
		"lat": "41.3553579",
		"lon": "21.3140348",
		"name": "Голем Скапец",
		"natural": "peak",
		"address": "Општина Кривогаштани, Пелагониски СР, Северна Македонија"
	},
	{
		"lat": "41.4079897",
		"lon": "21.6271007",
		"name": "Ќавено",
		"natural": "peak",
		"address": "Општина Прилеп, Пелагониски СР, Северна Македонија"
	},
	{
		"lat": "41.4070808",
		"lon": "21.6524535",
		"name": "Цуцул",
		"natural": "peak",
		"address": "Општина Прилеп, Пелагониски СР, Северна Македонија"
	},
	{
		"lat": "41.3190597",
		"lon": "21.5667531",
		"name": "Кара Камен",
		"natural": "peak",
		"address": "Селце, Општина Прилеп, Пелагониски СР, Северна Македонија"
	},
	{
		"lat": "41.3184155",
		"lon": "21.5732119",
		"name": "Мечка",
		"natural": "peak",
		"address": "Селце, Општина Прилеп, Пелагониски СР, Северна Македонија"
	},
	{
		"lat": "42.0165842",
		"lon": "20.886045",
		"name": "Попова Шапка",
		"natural": "peak",
		"address": "Попова Шапка, R1209, Гајре, Општина Тетово, Полошки СР, 1200, Северна Македонија"
	},
	{
		"lat": "42.1346962",
		"lon": "21.7192303",
		"name": "Куде сат",
		"historic": "monument",
		"address": "Куде сат, Гане георгиев, Куманово, Општина Куманово, Североисточен СР, 1300, Северна Македонија"
	},
	{
		"lat": "41.4292518",
		"lon": "21.7630611",
		"name": "Ножот",
		"natural": "peak",
		"address": "Ножот, R1101, Ракле, Општина Прилеп, Пелагониски СР, Северна Македонија"
	},
	{
		"lat": "41.3451182",
		"lon": "21.5519842",
		"name": "Кузман Јосифоски-Питу",
		"historic": "monument",
		"address": "Народен Херој Кузман Јосифоски-Питу, Методија Андонов - Ченто, Центар, Чаршија, Прилеп I, Прилеп, Општина Прилеп, Пелагониски СР, 7500, Северна Македонија"
	},
	{
		"lat": "41.3451518",
		"lon": "21.554267",
		"name": "Пеце Атанасоски",
		"historic": "monument",
		"address": "Вирус, 18, Борка Талески-Модерното, Центар, Чаршија, Прилеп I, Прилеп, Општина Прилеп, Пелагониски СР, 7500, Северна Македонија"
	},
	{
		"lat": "41.3452617",
		"lon": "21.5522173",
		"name": "Ѓорче Петров",
		"historic": "monument",
		"address": "Ѓорче Петров, Методија Андонов - Ченто, Центар, Чаршија, Прилеп I, Прилеп, Општина Прилеп, Пелагониски СР, 7500, Северна Македонија"
	},
	{
		"lat": "41.2586975",
		"lon": "21.4181513",
		"name": "Камен",
		"natural": "peak",
		"address": "Загорански Манастир, R2339, Кадино Село, Општина Прилеп, Пелагониски СР, 7512, Северна Македонија"
	},
	{
		"lat": "41.2412551",
		"lon": "21.4332587",
		"name": "Дупен Камен",
		"natural": "peak",
		"address": "Тополчани, Општина Прилеп, Пелагониски СР, 7512, Северна Македонија"
	},
	{
		"lat": "41.2580296",
		"lon": "21.4641515",
		"name": "Ѓупска Чука",
		"natural": "peak",
		"address": "A3, Алинци, Општина Прилеп, Пелагониски СР, 7512, Северна Македонија"
	},
	{
		"lat": "41.3651903",
		"lon": "21.2416901",
		"name": "Петочна вода",
		"natural": "spring",
		"address": "Св. Петка, Благој Целев, Влашко Маало, Крушево ВГ, Општина Крушево, Пелагониски СР, 7550, Северна Македонија"
	},
	{
		"lat": "41.5423928",
		"lon": "22.9683746",
		"name": "Балтакова Чука",
		"natural": "peak",
		"address": "България"
	},
	{
		"lat": "41.3818263",
		"lon": "22.9625526",
		"name": "18",
		"historic": "boundary_stone",
		"address": "18, R1402, Старо Коњарево, Општина Ново Село, Југоисточен СР, Северна Македонија"
	},
	{
		"lat": "41.3969922",
		"lon": "22.965619",
		"name": "26",
		"historic": "boundary_stone",
		"address": "26, A4, Ново Коњарево, Општина Ново Село, Југоисточен СР, Северна Македонија"
	},
	{
		"lat": "41.4533981",
		"lon": "22.9762168",
		"name": "31",
		"historic": "boundary_stone",
		"address": "31, NS-01, Бадолен, Општина Ново Село, Југоисточен СР, Северна Македонија"
	},
	{
		"lat": "41.4723462",
		"lon": "22.9662076",
		"name": "32",
		"historic": "boundary_stone",
		"address": "32, NS-01, Бадолен, Општина Ново Село, Југоисточен СР, Северна Македонија"
	},
	{
		"lat": "41.4924149",
		"lon": "22.9601131",
		"name": "33",
		"historic": "boundary_stone",
		"address": "33, Петрич, Благоевград, 2883, България"
	},
	{
		"lat": "41.4930169",
		"lon": "22.9585216",
		"name": "34",
		"historic": "boundary_stone",
		"address": "34, NS-01, Бадолен, Општина Ново Село, Југоисточен СР, Северна Македонија"
	},
	{
		"lat": "41.5295396",
		"lon": "22.9605185",
		"name": "35",
		"historic": "boundary_stone",
		"address": "35, Двориште, Општина Берово, Источен СР, Северна Македонија"
	},
	{
		"lat": "41.5423737",
		"lon": "22.9604199",
		"name": "36",
		"historic": "boundary_stone",
		"address": "36, Двориште, Општина Берово, Источен СР, Северна Македонија"
	},
	{
		"lat": "41.8016583",
		"lon": "22.9527432",
		"name": "56",
		"historic": "boundary_stone",
		"address": "56, Симитли, Благоевград, 2736, България"
	},
	{
		"lat": "41.6512525",
		"lon": "20.7341011",
		"name": "Шаркова дупка",
		"natural": "cave_entrance",
		"address": "Шаркова дупка, R2235, Маврово, Општина Маврово и Ростуша, Полошки СР, 1245, Северна Македонија"
	},
	{
		"lat": "42.1285046",
		"lon": "22.5565885",
		"name": "Ждрапаница",
		"natural": "peak",
		"address": "Сажденик, Кюстендил, България"
	},
	{
		"lat": "42.1046866",
		"lon": "22.595057",
		"name": "Копривата",
		"natural": "peak",
		"address": "Моштица, Општина Македонска Каменица, Источен СР, Северна Македонија"
	},
	{
		"lat": "42.1119733",
		"lon": "22.5770947",
		"name": "Просеченинк",
		"natural": "peak",
		"address": "87, R1210, Саса, Општина Македонска Каменица, Источен СР, Северна Македонија"
	},
	{
		"lat": "42.1907129",
		"lon": "22.5042182",
		"name": "Таш Тепе",
		"natural": "peak",
		"address": "България"
	},
	{
		"lat": "41.4671787",
		"lon": "21.4682391",
		"name": "Соколица",
		"natural": "peak",
		"address": "Браилово, Општина Долнени, Пелагониски СР, 7504, Северна Македонија"
	},
	{
		"lat": "41.462194",
		"lon": "21.3756601",
		"name": "Атанавчица",
		"natural": "peak",
		"address": "Св. Атанасиј, R2336, Ропотово, Општина Долнени, Пелагониски СР, Северна Македонија"
	},
	{
		"lat": "41.2818865",
		"lon": "21.4783382",
		"name": "Омец",
		"natural": "peak",
		"address": "Општина Прилеп, Пелагониски СР, Северна Македонија"
	},
	{
		"lat": "41.024615",
		"lon": "21.3368929",
		"name": "Стив Наумов",
		"historic": "memorial",
		"address": "Стефан Наумов-Стив, Македонска Фаланга, Боримечка, Битола, Општина Битола, Пелагониски СР, 7000, Северна Македонија"
	},
	{
		"lat": "41.4465803",
		"lon": "21.2887416",
		"name": "Тумба",
		"natural": "peak",
		"address": "Саждево, Општина Крушево, Пелагониски СР, 7537, Северна Македонија"
	},
	{
		"lat": "41.3783658",
		"lon": "21.3103195",
		"name": "Уши",
		"natural": "peak",
		"address": "Трстеник, Крушево ВГ, Општина Крушево, Пелагониски СР, 7550, Северна Македонија"
	},
	{
		"lat": "42.3051885",
		"lon": "22.3815398",
		"name": "Остра Чука",
		"natural": "peak",
		"address": "Чегарци, Жеравино, Кюстендил, България"
	},
	{
		"lat": "41.5516379",
		"lon": "21.9751675",
		"name": "Римски театар",
		"historic": "ruins",
		"address": "Антички театар, Пријателство, Градско, Општина Градско, Вардарски СР, 1422, Северна Македонија"
	},
	{
		"lat": "41.1458586",
		"lon": "22.5001795",
		"name": "Два Коња",
		"historic": "monument",
		"address": "Два Коња, Булевар Гевгелија, Гевгелија, Општина Гевгелија, Југоисточен СР, 1480, Северна Македонија"
	},
	{
		"lat": "42.3169466",
		"lon": "22.352891",
		"name": "Шупли камен",
		"natural": "peak",
		"address": "Мала Црцорија, Голема Црцорија, Општина Крива Паланка, Североисточен СР, Северна Македонија"
	},
	{
		"lat": "42.3730365",
		"lon": "22.2956016",
		"name": "Аниште",
		"natural": "peak",
		"address": "Црна Река, Општина Трговиште, Пчињски управни округ, Централна Србија, Србија"
	},
	{
		"lat": "41.8185435",
		"lon": "20.6260793",
		"name": "Прозаба",
		"natural": "peak",
		"address": "Стрезимир, Општина Гостивар, Полошки СР, Северна Македонија"
	},
	{
		"lat": "41.4035182",
		"lon": "21.1265362",
		"name": "Извор на Матица",
		"natural": "spring",
		"address": "Извор на Матица, R2337, Пуста Река, Општина Крушево, Пелагониски СР, Северна Македонија"
	},
	{
		"lat": "41.8216002",
		"lon": "21.1721654",
		"name": "Куклаица",
		"natural": "peak",
		"address": "Здуње, Општина Македонски Брод, Југозападен СР, Северна Македонија"
	},
	{
		"lat": "40.9765203",
		"lon": "20.9119981",
		"name": "Преспанско Советување",
		"historic": "monument",
		"address": "Преспанско Советување, R1307, Отешево, Општина Ресен, Пелагониски СР, Северна Македонија"
	},
	{
		"lat": "41.7205933",
		"lon": "23.0332062",
		"name": "Ченгино Кале",
		"natural": "peak",
		"address": "България"
	},
	{
		"lat": "42.0473883",
		"lon": "22.3290993",
		"name": "Панџур",
		"natural": "peak",
		"address": "Јамиште, Општина Пробиштип, Источен СР, Северна Македонија"
	},
	{
		"lat": "41.7913532",
		"lon": "20.5465802",
		"name": "Голем Кораб",
		"natural": "peak",
		"address": "Maja e Korabit - Голем Кораб, Route to \"Mount Korab\", Kala e Dodës, Bashkia Dibër, Qarku i Dibrës, Shqipëria Veriore, 8308, Shqipëria"
	},
	{
		"lat": "41.3475417",
		"lon": "21.556389",
		"name": "Карпалак",
		"historic": "monument",
		"address": "Ѓорѓи Делчев-Гоце, Центар, Чаршија, Прилеп I, Прилеп, Општина Прилеп, Пелагониски СР, Северна Македонија"
	},
	{
		"lat": "42.1491368",
		"lon": "21.7853235",
		"name": "Zebrnjak",
		"historic": "memorial",
		"address": "Zebrnjak, R2237, Куманово, Младо Нагоричане, Општина Старо Нагоричане, Североисточен СР, 1300, Северна Македонија"
	},
	{
		"lat": "41.0268349",
		"lon": "20.8461408",
		"name": "Пештера Самотска Дупка",
		"natural": "cave_entrance",
		"address": "Пештера Самотска Дупка, Велестово - Ледина, Коњско, Општина Охрид, Југозападен СР, Северна Македонија"
	},
	{
		"lat": "41.0661435",
		"lon": "20.8456693",
		"name": "Врв Три Мажи",
		"natural": "peak",
		"address": "Велестово - Два Јавора, Рача, Велестово, Општина Охрид, Југозападен СР, 6000, Северна Македонија"
	},
	{
		"lat": "41.0137366",
		"lon": "21.8552292",
		"name": "Сокол",
		"natural": "peak",
		"address": "E6, Δήμος Αλμωπίας, Περιφερειακή Ενότητα Πέλλας, Περιφέρεια Κεντρικής Μακεδονίας, Αποκεντρωμένη Διοίκηση Μακεδονίας - Θράκης, Ελλάς"
	},
	{
		"lat": "40.9332094",
		"lon": "20.8205661",
		"name": "Магаро",
		"natural": "peak",
		"address": "Љубаништа, Општина Охрид, Југозападен СР, Северна Македонија"
	},
	{
		"lat": "42.0853984",
		"lon": "21.9627449",
		"name": "Мачка камен",
		"historic": "archaeological_site",
		"address": "Мачка камен, R29277, Коњух, Општина Кратово, Североисточен СР, Северна Македонија"
	},
	{
		"lat": "41.4182291",
		"lon": "21.0770931",
		"name": "Христо Узунов",
		"historic": "monument",
		"address": "Христо Узунов, R.I.P. Христо Узунов, Цер, Општина Кичево, Југозападен СР, Северна Македонија"
	},
	{
		"lat": "41.9062629",
		"lon": "20.9636151",
		"name": "Споменик на жртви од НОВ",
		"historic": "monument",
		"address": "Споменик на жртви од НОВ, 102, Радиовце, Општина Брвеница, Полошки СР, 1213, Северна Македонија"
	},
	{
		"lat": "40.9878258",
		"lon": "21.8249658",
		"name": "Δόντι (Περιστέρι)",
		"natural": "peak",
		"address": "E6, Δήμος Αλμωπίας, Περιφερειακή Ενότητα Πέλλας, Περιφέρεια Κεντρικής Μακεδονίας, Αποκεντρωμένη Διοίκηση Μακεδονίας - Θράκης, Ελλάς"
	},
	{
		"lat": "41.3273603",
		"lon": "22.7797809",
		"name": "Троица",
		"natural": "peak",
		"address": "\u003eΑδιέξοδο, Δήμος Κιλκίς, Περιφερειακή Ενότητα Κιλκίς, Περιφέρεια Κεντρικής Μακεδονίας, Αποκεντρωμένη Διοίκηση Μακεδονίας - Θράκης, Ελλάς"
	},
	{
		"lat": "41.1540057",
		"lon": "22.1706213",
		"name": "Δοκάρι",
		"natural": "peak",
		"address": "Βακούφια, Δήμος Αλμωπίας, Περιφερειακή Ενότητα Πέλλας, Περιφέρεια Κεντρικής Μακεδονίας, Αποκεντρωμένη Διοίκηση Μακεδονίας - Θράκης, Ελλάς"
	},
	{
		"lat": "41.2879005",
		"lon": "22.7531578",
		"name": "Арап Ерек",
		"natural": "peak",
		"address": "Николиќ, Општина Дојран, Југоисточен СР, Северна Македонија"
	},
	{
		"lat": "41.3888512",
		"lon": "21.3028512",
		"name": "Кале",
		"natural": "peak",
		"address": "Пелагониски СР, Северна Македонија"
	},
	{
		"lat": "41.3518306",
		"lon": "21.319645",
		"name": "Градиште",
		"natural": "peak",
		"address": "R1306, Кривогаштани, Општина Кривогаштани, Пелагониски СР, 7524, Северна Македонија"
	},
	{
		"lat": "41.3519115",
		"lon": "21.3297301",
		"name": "Рид",
		"natural": "peak",
		"address": "Кореница, Општина Кривогаштани, Пелагониски СР, 7524, Северна Македонија"
	},
	{
		"lat": "41.3460556",
		"lon": "21.5524989",
		"name": "Александар Македонски",
		"historic": "monument",
		"address": "Комерцијална Банка, 1А, Плоштад Александрија, Центар, Чаршија, Прилеп I, Прилеп, Општина Прилеп, Пелагониски СР, 7500, Северна Македонија"
	},
	{
		"lat": "41.3462544",
		"lon": "21.5528281",
		"name": "Методија Андонов-Ченто",
		"historic": "monument",
		"address": "Методија Андонов-Ченто, Плоштад Александрија, Центар, Чаршија, Прилеп I, Прилеп, Општина Прилеп, Пелагониски СР, 7500, Северна Македонија"
	},
	{
		"lat": "41.3462194",
		"lon": "21.553243",
		"name": "Св. Никола",
		"historic": "monument",
		"address": "Плоштад Александрија, Центар, Чаршија, Прилеп I, Прилеп, Општина Прилеп, Пелагониски СР, Северна Македонија"
	},
	{
		"lat": "41.822914",
		"lon": "21.7360635",
		"name": "Масакр кај Пуста Кула",
		"historic": "memorial",
		"address": "Масакр кај Пуста Кула, 10113, Рудник, Општина Велес, Вардарски СР, Северна Македонија"
	},
	{
		"lat": "41.8509666",
		"lon": "21.7223648",
		"name": "Ајдучка Чешма",
		"natural": "spring",
		"address": "Ајдучка Чешма, R1102, Летевци, Општина Петровец, Скопски СР, Северна Македонија"
	},
	{
		"lat": "41.3341123",
		"lon": "21.554646",
		"name": "Крипта",
		"historic": "monument",
		"address": "Могила на непобедените, ББ, Цар Самоил, Корзо, Чачорица, Прилеп, Општина Прилеп, Пелагониски СР, 7500, Северна Македонија"
	},
	{
		"lat": "41.126114",
		"lon": "22.1440586",
		"name": "Βίσογκριντ",
		"natural": "peak",
		"address": "Μαύρος Βράχος, Δήμος Αλμωπίας, Περιφερειακή Ενότητα Πέλλας, Περιφέρεια Κεντρικής Μακεδονίας, Αποκεντρωμένη Διοίκηση Μακεδονίας - Θράκης, Ελλάς"
	},
	{
		"lat": "41.7649664",
		"lon": "22.0118585",
		"name": "Свети Јовански рид (755)",
		"natural": "peak",
		"address": "Богословец, Општина Свети Николе, Вардарски СР, Северна Македонија"
	},
	{
		"lat": "41.7590372",
		"lon": "22.0342981",
		"name": "Тиски Врв",
		"natural": "peak",
		"address": "Богословец, Општина Свети Николе, Вардарски СР, Северна Македонија"
	},
	{
		"lat": "41.345456",
		"lon": "21.5548417",
		"name": "Итар Пејо",
		"historic": "monument",
		"address": "Итар Пејо, Центар, Чаршија, Прилеп I, Прилеп, Општина Прилеп, Пелагониски СР, 7500, Северна Македонија"
	},
	{
		"lat": "41.9253366",
		"lon": "21.7769746",
		"name": "Венец",
		"natural": "peak",
		"address": "R105, Дивље, Општина Петровец, Скопски СР, Северна Македонија"
	},
	{
		"lat": "41.7227593",
		"lon": "21.038168",
		"name": "Лимуње",
		"natural": "peak",
		"address": "Ботушје, Општина Македонски Брод, Југозападен СР, Северна Македонија"
	},
	{
		"lat": "41.7476073",
		"lon": "21.0282524",
		"name": "Трновски Рид",
		"natural": "peak",
		"address": "Волче, Општина Македонски Брод, Југозападен СР, Северна Македонија"
	},
	{
		"lat": "41.7019439",
		"lon": "21.0393997",
		"name": "Цветковско Рамниште",
		"natural": "peak",
		"address": "Ботушје, Општина Македонски Брод, Југозападен СР, Северна Македонија"
	},
	{
		"lat": "41.7101043",
		"lon": "21.0074985",
		"name": "Кралевица",
		"natural": "peak",
		"address": "Железна Река, Општина Гостивар, Полошки СР, Северна Македонија"
	},
	{
		"lat": "41.6457825",
		"lon": "20.8158621",
		"name": "Сандакташ",
		"natural": "peak",
		"address": "m2, Тајмиште, Општина Кичево, Југозападен СР, Северна Македонија"
	},
	{
		"lat": "41.975162",
		"lon": "22.8187714",
		"name": "Dedo Jakim - Mill",
		"historic": "monument",
		"address": "Dedo Jakim - Mill, A3, Ѕвегор, Dzvegor, Ѕвегор, Општина Делчево, Источен СР, 2320, Северна Македонија"
	},
	{
		"lat": "41.9769054",
		"lon": "22.8193451",
		"name": "Ilin Kamen",
		"historic": "monument",
		"address": "Ilin Kamen, A3, Ѕвегор, Dzvegor, Ѕвегор, Општина Делчево, Источен СР, 2320, Северна Македонија"
	},
	{
		"lat": "41.9668611",
		"lon": "22.7768724",
		"name": "Гоце Делчев (Биста)",
		"historic": "monument",
		"address": "Гоце Делчев (Биста), Пешачки премин, Делчево, Центар, Делчево, Општина Делчево, Источен СР, 2320, Северна Македонија"
	},
	{
		"lat": "41.9643843",
		"lon": "22.7742882",
		"name": "Гоце Делчев",
		"historic": "monument",
		"address": "Гоце Делчев, Кеј на Слободата, Делчево, Центар, Делчево, Општина Делчево, Источен СР, 2320, Северна Македонија"
	},
	{
		"lat": "41.9653801",
		"lon": "22.7716387",
		"name": "Споменик на паднати борци во НОБ",
		"historic": "monument",
		"address": "Споменик на паднати борци во НОБ, Маршал Тито, Делчево, Втори Реон, Делчево, Општина Делчево, Источен СР, 2320, Северна Македонија"
	},
	{
		"lat": "41.9425359",
		"lon": "22.7954411",
		"name": "Кула",
		"historic": "monument",
		"address": "Кула, R1302, Звгеорска Река, Стар Истевник, Општина Делчево, Источен СР, 2320, Северна Македонија"
	},
	{
		"lat": "41.9751421",
		"lon": "21.4044068",
		"name": "извор Муртинец",
		"natural": "spring",
		"address": "извор Муртинец, R2138, Карпош, Скопје, Општина Карпош, Град Скопје, Скопски СР, 1000, Северна Македонија"
	},
	{
		"lat": "42.1051176",
		"lon": "20.9659367",
		"name": "Плоча",
		"natural": "peak",
		"address": "Брезно, Општина Теарце, Полошки СР, Северна Македонија"
	},
	{
		"lat": "42.0092806",
		"lon": "20.8454506",
		"name": "Антени",
		"natural": "peak",
		"address": "Зимска патека, Вешала, Општина Тетово, Полошки СР, Северна Македонија"
	},
	{
		"lat": "41.9682709",
		"lon": "21.4313461",
		"name": "Маркови Кули",
		"historic": "ruins",
		"address": "Маркови Кули, R2138, Карпош, Скопје, Општина Карпош, Град Скопје, Скопски СР, 1054, Северна Македонија"
	},
	{
		"lat": "41.9635418",
		"lon": "21.4100975",
		"name": "Орашец",
		"natural": "peak",
		"address": "Пензионерска патека, Карпош, Сопиште, Општина Сопиште, Град Скопје, Скопски СР, 1054, Северна Македонија"
	},
	{
		"lat": "41.139367",
		"lon": "22.5093733",
		"name": "Леонид Јанков",
		"historic": "monument",
		"address": "Леонид Јанков, Илинденска, Гевгелија, Општина Гевгелија, Југоисточен СР, 1480, Северна Македонија"
	},
	{
		"lat": "41.2515164",
		"lon": "21.4746659",
		"name": "Кара Камен",
		"natural": "peak",
		"address": "Општина Прилеп, Пелагониски СР, Северна Македонија"
	},
	{
		"lat": "40.8536596",
		"lon": "21.1211491",
		"name": "Г177",
		"natural": "peak",
		"historic": "boundary_stone",
		"address": "Г177, Δημοτική Ενότητα Πρεσπών, Δήμος Πρεσπών, Περιφερειακή Ενότητα Φλώρινας, Περιφέρεια Δυτικής Μακεδονίας, Αποκεντρωμένη Διοίκηση Ηπείρου - Δυτικής Μακεδονίας, Ελλάς"
	},
	{
		"lat": "40.8545802",
		"lon": "21.1255774",
		"name": "Г176",
		"historic": "boundary_stone",
		"address": "Г176, R1308, Долно Дупени, Општина Ресен, Пелагониски СР, Северна Македонија"
	},
	{
		"lat": "40.8554344",
		"lon": "21.1306578",
		"name": "Г175-2",
		"historic": "boundary_stone",
		"address": "Г175-2, R1308, Долно Дупени, Општина Ресен, Пелагониски СР, Северна Македонија"
	},
	{
		"lat": "40.854785",
		"lon": "21.1326005",
		"name": "Г175-1",
		"historic": "boundary_stone",
		"address": "Г175-1, R1308, Долно Дупени, Општина Ресен, Пелагониски СР, Северна Македонија"
	},
	{
		"lat": "41.1367873",
		"lon": "21.8043508",
		"name": "Пантеле",
		"natural": "peak",
		"address": "Полчишки Манастир, R2338, Бешиште, Општина Прилеп, Пелагониски СР, Северна Македонија"
	},
	{
		"lat": "40.8838317",
		"lon": "21.2069218",
		"name": "Балтан",
		"natural": "peak",
		"address": "Северна Македонија"
	},
	{
		"lat": "41.1365851",
		"lon": "20.862981",
		"name": "Греда",
		"natural": "peak",
		"address": "Велгошти, Општина Охрид, Југозападен СР, 6000, Северна Македонија"
	},
	{
		"lat": "41.1274807",
		"lon": "22.517412",
		"name": "Г59",
		"historic": "boundary_stone",
		"address": "Г59, Φανός - Ειδομένη, Ειδομένη, Δήμος Παιονίας, Περιφερειακή Ενότητα Κιλκίς, Περιφέρεια Κεντρικής Μακεδονίας, Αποκεντρωμένη Διοίκηση Μακεδονίας - Θράκης, 610 05, Ελλάς"
	},
	{
		"lat": "41.9301599",
		"lon": "21.2922688",
		"name": "Vrelo Cave or Bat Cave",
		"natural": "cave_entrance",
		"address": "Врело, Sveta Nedela, Матка, Општина Сарај, Град Скопје, Скопски СР, Северна Македонија"
	},
	{
		"lat": "41.9834333",
		"lon": "21.439106",
		"name": "Тодор Александров",
		"historic": "monument",
		"address": "Тодор Александров, Иван Козаров, Цветан Димов, Кисела Вода, Скопје, Општина Кисела Вода, Град Скопје, Скопски СР, 1111, Северна Македонија"
	},
	{
		"lat": "41.986749",
		"lon": "21.4369668",
		"name": "Стара Рампа",
		"historic": "monument",
		"address": "Стара Рампа, Булевар Македонија, Цветан Димов, Кисела Вода, Скопје, Општина Кисела Вода, Град Скопје, Скопски СР, 1111, Северна Македонија"
	},
	{
		"lat": "41.4166941",
		"lon": "22.7549207",
		"name": "Гоце Делчев",
		"historic": "monument",
		"address": "Гоце Делчев, yes, Моноспитово, Општина Босилово, Југоисточен СР, Северна Македонија"
	},
	{
		"lat": "41.0116186",
		"lon": "21.3429619",
		"name": "Хераклеа Линкестис",
		"historic": "archaeological_site",
		"address": "Хераклеа Линкестис, Буковски Мост, Боримечка, Битола, Општина Битола, Пелагониски СР, 7000, Северна Македонија"
	},
	{
		"lat": "42.0836407",
		"lon": "20.7942347",
		"name": "Кара Никола",
		"natural": "peak",
		"address": "Prizren, Komuna e Prizrenit / Opština Prizren / Prizren Belediyesi, 20000, Kosovë"
	},
	{
		"lat": "41.328046",
		"lon": "21.6193577",
		"name": "Ѓуле",
		"natural": "peak",
		"address": "Томе Темелкоски, Прилеп-Градско, Лениште, Општина Прилеп, Пелагониски СР, 7510, Северна Македонија"
	},
	{
		"lat": "41.6139941",
		"lon": "21.101872",
		"name": "Tuinsko Kale",
		"natural": "peak",
		"address": "Brakjan/ Braḱam, Тополница, Општина Македонски Брод, Југозападен СР, Северна Македонија"
	},
	{
		"lat": "41.4377799",
		"lon": "21.0710797",
		"name": "Голем Сач",
		"natural": "peak",
		"address": "Југозападен СР, Северна Македонија"
	},
	{
		"lat": "41.4505452",
		"lon": "21.5875513",
		"name": "Бубулец",
		"natural": "peak",
		"address": "Стари Присад, Присад, Општина Прилеп, Пелагониски СР, Северна Македонија"
	},
	{
		"lat": "41.1320936",
		"lon": "21.4336709",
		"name": "Козомарица",
		"natural": "peak",
		"address": "Долна Чарлија, Чарлија, Општина Могила, Пелагониски СР, Северна Македонија"
	},
	{
		"lat": "41.1338243",
		"lon": "21.4265054",
		"name": "Бостаниште",
		"natural": "peak",
		"address": "Долна Чарлија, Чарлија, Општина Могила, Пелагониски СР, Северна Македонија"
	},
	{
		"lat": "42.2090216",
		"lon": "21.6992009",
		"name": "Трговиште",
		"natural": "peak",
		"address": "Пријателство, Табановце, Општина Куманово, Североисточен СР, Северна Македонија"
	},
	{
		"lat": "41.5809648",
		"lon": "20.5599267",
		"name": "Дели Сеница",
		"natural": "peak",
		"address": "Дебар, Дебaр, Општина Дебар, Југозападен СР, 1250, Северна Македонија"
	},
	{
		"lat": "41.5795298",
		"lon": "20.5638951",
		"name": "Рудина",
		"natural": "peak",
		"address": "Дебар, Дебaр, Општина Дебар, Југозападен СР, 1250, Северна Македонија"
	},
	{
		"lat": "41.1245408",
		"lon": "21.095359",
		"name": "Голем Камен",
		"natural": "peak",
		"address": "Пелагониски СР, Северна Македонија"
	},
	{
		"lat": "40.9142149",
		"lon": "20.7412554",
		"name": "Свети Наум",
		"historic": "memorial",
		"address": "Свети Наум, R1301, Љубаништа, Општина Охрид, Југозападен СР, Северна Македонија"
	},
	{
		"lat": "41.4194205",
		"lon": "21.8296436",
		"name": "Голеш",
		"natural": "peak",
		"address": "Влечалките, Голем Радобил, Општина Прилеп, Пелагониски СР, Северна Македонија"
	},
	{
		"lat": "41.736405",
		"lon": "22.1903758",
		"name": "Споменик на загинатите евреи",
		"historic": "monument",
		"address": "Споменик на загинатите евреи, Кеј Маршал Тито, Кежовица, Ново Село, Штип, Општина Штип, Источен СР, 2000, Северна Македонија"
	},
	{
		"lat": "42.000853",
		"lon": "21.4375046",
		"name": "Мустафа-пашина џамија",
		"historic": "monument",
		"address": "Мустафа-пашина џамија, Битпазарска, Дуќанџик, Чаир, Скопје, Општина Чаир, Град Скопје, Скопски СР, 1009, Северна Македонија"
	},
	{
		"lat": "41.9130467",
		"lon": "21.4333848",
		"name": "Vila Varvarka",
		"historic": "castle",
		"addr:street": "Varvara",
		"address": "Vila Varvarka, R1106, Ракотинци, Општина Сопиште, Град Скопје, Скопски СР, 1050, Северна Македонија"
	},
	{
		"lat": "41.9949279",
		"lon": "21.4108745",
		"name": "Споменик на Јуриј Гагарин",
		"historic": "monument",
		"address": "Споменик на Јуриј Гагарин, Јуриј Гагарин, Козле, Карпош, Скопје, Општина Карпош, Град Скопје, Скопски СР, 1020, Северна Македонија"
	},
	{
		"lat": "41.9930188",
		"lon": "21.4332009",
		"name": "статуа на Никола Карев",
		"historic": "monument",
		"address": "Никола Карев, 11-ти Октомври, Маџир Маало, Центар, Скопје, Општина Центар, Град Скопје, Скопски СР, 1111, Северна Македонија"
	},
	{
		"lat": "41.1160195",
		"lon": "20.8002583",
		"name": "Стар чинар",
		"natural": "tree",
		"address": "Крст Џамија, Охрид, Општина Охрид, Југозападен СР, Северна Македонија"
	},
	{
		"lat": "41.9481612",
		"lon": "21.3097051",
		"name": "Trlo",
		"natural": "cliff",
		"address": "Трло, Света Петка, Општина Сопиште, Град Скопје, Скопски СР, Северна Македонија"
	},
	{
		"lat": "41.0636927",
		"lon": "21.1106037",
		"name": "Турска Чешма",
		"natural": "spring",
		"address": "Турска Чешма, R1101, Ѓавато, Општина Битола, Пелагониски СР, Северна Македонија"
	},
	{
		"lat": "42.0016804",
		"lon": "21.4283664",
		"name": "Вера Јоциќ",
		"historic": "monument",
		"address": "Вера Јоциќ, Јордан Хаџиконстантинов Џинот, Дебар Маало, Центар, Скопје, Општина Центар, Град Скопје, Скопски СР, 1111, Северна Македонија"
	},
	{
		"lat": "40.9760769",
		"lon": "20.8322861",
		"name": "Бајраче",
		"natural": "peak",
		"address": "Љубаништа, Општина Охрид, Југозападен СР, Северна Македонија"
	},
	{
		"lat": "42.1285847",
		"lon": "20.9200076",
		"name": "Црн Врв",
		"natural": "peak",
		"address": "Ura e Rinorit, Komuna e Prizrenit / Opština Prizren / Prizren Belediyesi, Kosovë"
	},
	{
		"lat": "42.1367397",
		"lon": "20.9632374",
		"name": "Гужбаба",
		"natural": "peak",
		"address": "Burimi i Lumbardhit të Prizrenit, Ura e Rinorit, Komuna e Prizrenit / Opština Prizren / Prizren Belediyesi, Kosovë"
	},
	{
		"lat": "42.1628734",
		"lon": "21.4551072",
		"name": "Пржар",
		"natural": "peak",
		"address": "Бродец, Општина Чучер Сандево, Скопски СР, Северна Македонија"
	},
	{
		"lat": "42.150622",
		"lon": "21.0092633",
		"name": "Езерски Врв",
		"natural": "peak",
		"address": "Kosovë"
	},
	{
		"lat": "42.0980195",
		"lon": "20.867567",
		"name": "Ljubinski Uši",
		"natural": "rock",
		"address": "Ljubinski Uši, Stare Livade, Lubinjë e Poshtme, Komuna e Prizrenit / Opština Prizren / Prizren Belediyesi, Kosovë"
	},
	{
		"lat": "42.0266955",
		"lon": "21.2384711",
		"name": "Дона Дука",
		"natural": "cave_entrance",
		"address": "Дона Дука, Улица 1, Ѓорче Петров, Рашче, Општина Сарај, Град Скопје, Скопски СР, 1060, Северна Македонија"
	},
	{
		"lat": "41.3454611",
		"lon": "21.5531678",
		"name": "Крал Марко",
		"historic": "monument",
		"address": "Методија Андонов - Ченто, Центар, Чаршија, Прилеп I, Прилеп, Општина Прилеп, Пелагониски СР, Северна Македонија"
	},
	{
		"lat": "41.3450704",
		"lon": "21.5505634",
		"name": "Круме Кепески",
		"historic": "monument",
		"address": "Круме Кепески, Плоштад Уметност, Центар, Чаршија, Прилеп I, Прилеп, Општина Прилеп, Пелагониски СР, 7500, Северна Македонија"
	},
	{
		"lat": "41.3451329",
		"lon": "21.5506707",
		"name": "Блаже Конески",
		"historic": "monument",
		"address": "Блаже Конески, Плоштад Уметност, Центар, Чаршија, Прилеп I, Прилеп, Општина Прилеп, Пелагониски СР, 7500, Северна Македонија"
	},
	{
		"lat": "41.3451792",
		"lon": "21.5505581",
		"name": "Марко Цепенков",
		"historic": "monument",
		"address": "Марко Цепенков, Плоштад Уметност, Центар, Чаршија, Прилеп I, Прилеп, Општина Прилеп, Пелагониски СР, 7500, Северна Македонија"
	},
	{
		"lat": "42.1583291",
		"lon": "21.4731333",
		"name": "Црн Камен",
		"natural": "peak",
		"address": "Бродец, Општина Чучер Сандево, Скопски СР, Северна Македонија"
	},
	{
		"lat": "41.5130946",
		"lon": "20.9663459",
		"name": "Китино Кале",
		"historic": "castle",
		"address": "Китино Кале, Амит Челопечанец, Подварош, Кичево, Општина Кичево, Југозападен СР, 6250, Северна Македонија"
	},
	{
		"lat": "41.3412823",
		"lon": "22.9282525",
		"name": "1a",
		"historic": "boundary_stone",
		"address": "1a, R1402, Старо Коњарево, Општина Ново Село, Југоисточен СР, Северна Македонија"
	},
	{
		"lat": "41.9184854",
		"lon": "20.7765241",
		"name": "Голема Рудока",
		"natural": "peak",
		"address": "Северна Македонија"
	},
	{
		"lat": "42.0986564",
		"lon": "20.8432935",
		"name": "Вртоп",
		"natural": "peak",
		"address": "Lubinjë e Poshtme, Komuna e Prizrenit / Opština Prizren / Prizren Belediyesi, Kosovë"
	},
	{
		"lat": "42.1489557",
		"lon": "20.9956717",
		"name": "Maja Livadh",
		"natural": "peak",
		"address": "Komuna e Shtërpcës / Opština Štrpce, 73000, Kosovë"
	},
	{
		"lat": "41.8881379",
		"lon": "20.73756",
		"name": "Мала Враца",
		"natural": "peak",
		"address": "Ломница, Општина Врапчиште, Полошки СР, Северна Македонија"
	},
	{
		"lat": "42.1850901",
		"lon": "21.0669743",
		"name": "Ливадица;Livadicë",
		"natural": "peak",
		"address": "Северна Македонија"
	},
	{
		"lat": "41.9345571",
		"lon": "20.7987065",
		"name": "Бориславец",
		"natural": "peak",
		"address": "Ново Село, Општина Боговиње, Полошки СР, Северна Македонија"
	},
	{
		"lat": "41.2788101",
		"lon": "20.7836677",
		"name": "Ботун",
		"historic": "memorial",
		"address": "Ботун, A2, Ботун, Општина Дебарца, Југозападен СР, Северна Македонија"
	},
	{
		"lat": "41.158263",
		"lon": "22.5006786",
		"name": "Споменик на слободата",
		"historic": "monument",
		"address": "Споменик на слободата, R1102, Мрзенци, Општина Гевгелија, Југоисточен СР, 1480, Северна Македонија"
	},
	{
		"lat": "41.376859",
		"lon": "21.8252335",
		"name": "Дедец",
		"natural": "spring",
		"address": "Дедец, R1101, Топлица, Општина Прилеп, Пелагониски СР, Северна Македонија"
	},
	{
		"lat": "41.641583",
		"lon": "22.4595341",
		"name": "Јавор",
		"natural": "tree",
		"address": "Јавор, Стара Автобуска, Радовиш, Општина Радовиш, Југоисточен СР, 2420, Северна Македонија"
	},
	{
		"lat": "41.8967789",
		"lon": "20.7515975",
		"name": "Голема Враца",
		"natural": "peak",
		"address": "Ломница, Општина Врапчиште, Полошки СР, Северна Македонија"
	},
	{
		"lat": "42.0780881",
		"lon": "20.7845598",
		"name": "Скарпа",
		"natural": "peak",
		"address": "Вешала, Општина Тетово, Полошки СР, Северна Македонија"
	},
	{
		"lat": "41.3738524",
		"lon": "21.5025867",
		"name": "Борецот",
		"historic": "monument",
		"address": "Борецот, R1303, Прилеп (Околина), Општина Прилеп, Пелагониски СР, 7513, Северна Македонија"
	},
	{
		"lat": "41.6778937",
		"lon": "21.311703",
		"name": "Белица Извор",
		"natural": "spring",
		"address": "Белица Извор, Белица, Општина Македонски Брод, Југозападен СР, Северна Македонија"
	},
	{
		"lat": "41.6636444",
		"lon": "21.3178988",
		"name": "Момичек",
		"natural": "cave_entrance",
		"address": "Момичек, Белица, Општина Македонски Брод, Југозападен СР, Северна Македонија"
	},
	{
		"lat": "41.1736526",
		"lon": "20.6783749",
		"name": "Сергеј Есенин",
		"historic": "monument",
		"address": "Сергеј Есенин, Мост на поезијата, Струга III, Струга, Општина Струга, Југозападен СР, 6330, Северна Македонија"
	},
	{
		"lat": "41.4306732",
		"lon": "20.6823267",
		"name": "Бабин Срт",
		"natural": "peak",
		"address": "Врбјани, Општина Дебарца, Југозападен СР, Северна Македонија"
	},
	{
		"lat": "41.7909559",
		"lon": "20.7253289",
		"name": "Лера",
		"natural": "peak",
		"address": "Бродец, Општина Гостивар, Полошки СР, Северна Македонија"
	},
	{
		"lat": "42.0240426",
		"lon": "20.8122566",
		"name": "Плат",
		"natural": "peak",
		"address": "Бозовце, Општина Тетово, Полошки СР, Северна Македонија"
	},
	{
		"lat": "42.0122804",
		"lon": "20.7922676",
		"name": "Средни Камен",
		"natural": "peak",
		"address": "To Peak Sreden Kamen, Бозовце, Општина Тетово, Полошки СР, Северна Македонија"
	},
	{
		"lat": "42.0960859",
		"lon": "20.8836989",
		"name": "Кобилица",
		"natural": "peak",
		"address": "Rezervat Strikt i Natyrës \"Kobilica\", Stare Livade, Lubinjë e Poshtme, Komuna e Prizrenit / Opština Prizren / Prizren Belediyesi, Kosovë"
	},
	{
		"lat": "42.1423672",
		"lon": "20.9625819",
		"name": "Burimi i Lumbardhit të Prizrenit",
		"natural": "spring",
		"tourism": "attraction",
		"address": "Burimi i Lumbardhit të Prizrenit, Ura e Rinorit, Komuna e Prizrenit / Opština Prizren / Prizren Belediyesi, Kosovë"
	},
	{
		"lat": "41.9885698",
		"lon": "20.8169778",
		"name": "Бакардан",
		"natural": "peak",
		"address": "Зимска патека, Вешала, Општина Тетово, Полошки СР, Северна Македонија"
	},
	{
		"lat": "42.0032884",
		"lon": "20.8363199",
		"name": "Син Врв",
		"natural": "peak",
		"address": "Зимска патека, Вешала, Општина Тетово, Полошки СР, Северна Македонија"
	},
	{
		"lat": "42.0007271",
		"lon": "20.8212775",
		"name": "Карабунар",
		"natural": "peak",
		"address": "Зимска патека, Бозовце, Општина Тетово, Полошки СР, Северна Македонија"
	},
	{
		"lat": "41.2845152",
		"lon": "20.5297742",
		"name": "Стрижак",
		"natural": "peak",
		"address": "Лабуништа, Општина Струга, Југозападен СР, 6336, Северна Македонија"
	},
	{
		"lat": "41.823989",
		"lon": "20.5594325",
		"name": "Maja Kulla e Zyberit",
		"natural": "peak",
		"address": "Kala e Dodës, Bashkia Dibër, Qarku i Dibrës, Shqipëria Veriore, 8308, Shqipëria"
	},
	{
		"lat": "41.7978397",
		"lon": "20.5461716",
		"name": "Shpelle",
		"natural": "cave_entrance",
		"address": "Shpelle, Route to \"Mount Korab\", Kala e Dodës, Bashkia Dibër, Qarku i Dibrës, Shqipëria Veriore, 8308, Shqipëria"
	},
	{
		"lat": "41.8066527",
		"lon": "20.5545801",
		"name": "Maja Trashe",
		"natural": "peak",
		"address": "Kala e Dodës, Bashkia Dibër, Qarku i Dibrës, Shqipëria Veriore, 8308, Shqipëria"
	},
	{
		"lat": "41.8154727",
		"lon": "20.544669",
		"name": "Shpella Dashit",
		"natural": "cave_entrance",
		"address": "Shpella Dashit, Route to \"Mount Korab\", Kala e Dodës, Bashkia Dibër, Qarku i Dibrës, Shqipëria Veriore, 8308, Shqipëria"
	},
	{
		"lat": "41.0360753",
		"lon": "20.8134945",
		"name": "даб",
		"natural": "tree",
		"address": "даб, Коњско - Елшани, Лагадин, Општина Охрид, Југозападен СР, Северна Македонија"
	},
	{
		"lat": "41.0362761",
		"lon": "20.818007",
		"name": "даб",
		"natural": "tree",
		"address": "даб, Коњско - Елшани, Лагадин, Општина Охрид, Југозападен СР, Северна Македонија"
	},
	{
		"lat": "41.0315152",
		"lon": "20.8186964",
		"name": "даб",
		"natural": "tree",
		"address": "даб, Коњско - Елшани, Елешец, Елшани, Општина Охрид, Југозападен СР, Северна Македонија"
	},
	{
		"lat": "42.0769461",
		"lon": "22.1823517",
		"name": "Емин-бегова кула",
		"historic": "monument",
		"address": "Емин-бегова кула, Скопска, Кратово, Општина Кратово, Североисточен СР, Северна Македонија"
	},
	{
		"lat": "42.0768838",
		"lon": "22.1826261",
		"name": "Крстева кула",
		"historic": "monument",
		"address": "Крстева кула, Скопска, Кратово, Општина Кратово, Североисточен СР, Северна Македонија"
	},
	{
		"lat": "41.1949939",
		"lon": "22.6878453",
		"name": "Споменик „Солунски фронт“ од I светска војна",
		"historic": "monument",
		"address": "Споменик „Солунски фронт“ од I светска војна, Маршал Тито, Стар Дојран, Општина Дојран, Југоисточен СР, 1487, Северна Македонија"
	},
	{
		"lat": "42.0768628",
		"lon": "22.1822635",
		"name": "Хаџикостова кула",
		"historic": "monument",
		"address": "Хаџикостова кула, Јосиф Даскалов, Кратово, Општина Кратово, Североисточен СР, Северна Македонија"
	},
	{
		"lat": "42.0788289",
		"lon": "22.1809805",
		"name": "Златковичева кула",
		"historic": "monument",
		"address": "Златковичева кула, Гоце Делчев, Кратово, Општина Кратово, Североисточен СР, Северна Македонија"
	},
	{
		"lat": "42.0786957",
		"lon": "22.1794714",
		"name": "Симиќева кула",
		"historic": "monument",
		"address": "Симиќева кула, Трајче Арсов, Кратово, Општина Кратово, Североисточен СР, Северна Македонија"
	},
	{
		"lat": "41.9797605",
		"lon": "20.7544383",
		"name": "Брдалево",
		"natural": "peak",
		"address": "Бозовце, Општина Тетово, Полошки СР, Северна Македонија"
	},
	{
		"lat": "40.8787008",
		"lon": "21.2215492",
		"name": "Стол",
		"natural": "peak",
		"address": "Ελλάς"
	},
	{
		"lat": "40.8742114",
		"lon": "21.2428795",
		"name": "Бојаџиев Врв",
		"natural": "peak",
		"address": "Кишава, Општина Битола, Пелагониски СР, Северна Македонија"
	},
	{
		"lat": "40.8593901",
		"lon": "21.2596613",
		"name": "Бела Вода / Μπελαβόδα",
		"natural": "peak",
		"address": "Северна Македонија"
	},
	{
		"lat": "40.8714079",
		"lon": "21.2458751",
		"name": "Г167/3",
		"natural": "peak",
		"address": "Кишава, Општина Битола, Пелагониски СР, Северна Македонија"
	},
	{
		"lat": "41.4409796",
		"lon": "22.6796979",
		"name": "Струмица-Кристал-64",
		"historic": "monument",
		"address": "Струмица-Кристал-64, A4, Дабиље, Општина Струмица, Југоисточен СР, 2400, Северна Македонија"
	},
	{
		"lat": "41.788892",
		"lon": "20.5398029",
		"name": "Burim Uji",
		"natural": "spring",
		"address": "Burim Uji, Route to \"Mount Korab\", Kala e Dodës, Bashkia Dibër, Qarku i Dibrës, Shqipëria Veriore, 8308, Shqipëria"
	},
	{
		"lat": "41.1142035",
		"lon": "20.7958058",
		"name": "Grigor Prlicev grave",
		"historic": "tomb",
		"address": "Григор Прличев, Кирил и Методиј, Лескајца, Охрид, Општина Охрид, Југозападен СР, 6000, Северна Македонија"
	},
	{
		"lat": "42.0453492",
		"lon": "20.7650301",
		"name": "Залина",
		"natural": "peak",
		"address": "Liqeni i bardhë-Skakalla, To Peak Sreden Kamen, Бозовце, Општина Тетово, Полошки СР, Северна Македонија"
	},
	{
		"lat": "41.9535613",
		"lon": "20.7674506",
		"name": "Трaпезница",
		"natural": "peak",
		"address": "Ново Село, Општина Боговиње, Полошки СР, Северна Македонија"
	},
	{
		"lat": "41.9632462",
		"lon": "20.7668007",
		"name": "Џинибег",
		"natural": "peak",
		"address": "Бозовце, Општина Тетово, Полошки СР, Северна Македонија"
	},
	{
		"lat": "41.2062831",
		"lon": "21.3937075",
		"name": "Страчкојца",
		"natural": "peak",
		"address": "Лознани, Општина Могила, Пелагониски СР, Северна Македонија"
	},
	{
		"lat": "42.1380905",
		"lon": "20.9448235",
		"name": "Коњушка",
		"natural": "peak",
		"address": "Kosovë"
	},
	{
		"lat": "42.159212",
		"lon": "21.0338639",
		"name": "Раша",
		"natural": "peak",
		"address": "Северна Македонија"
	},
	{
		"lat": "42.1660049",
		"lon": "21.0488399",
		"name": "Пирибег",
		"natural": "peak",
		"address": "Sharrës, Brezovicë, Komuna e Shtërpcës / Opština Štrpce, 73000, Kosovë"
	},
	{
		"lat": "41.7136289",
		"lon": "21.7796887",
		"name": "Којничкиот Јавор",
		"natural": "tree",
		"address": "Којничкиот Јавор, Којник, Велес, Општина Велес, Вардарски СР, 1400, Северна Македонија"
	},
	{
		"lat": "40.9238735",
		"lon": "20.915544",
		"name": "Maja Osoit",
		"natural": "peak",
		"address": "Стење, Општина Ресен, Пелагониски СР, Северна Македонија"
	},
	{
		"lat": "40.918523",
		"lon": "20.9298992",
		"name": "Алта Чука",
		"natural": "peak",
		"address": "Kallamas, Pustec, Bashkia Pustec, Qarku i Korçës, Shqipëria Jugore, Shqipëria"
	},
	{
		"lat": "40.9164422",
		"lon": "20.9570375",
		"name": "Високи Врв",
		"natural": "peak",
		"address": "Стење, Општина Ресен, Пелагониски СР, Северна Македонија"
	},
	{
		"lat": "40.8944728",
		"lon": "20.9707761",
		"name": "Maja Bitjanikut",
		"natural": "peak",
		"address": "Kallamas, Pustec, Bashkia Pustec, Qarku i Korçës, Shqipëria Jugore, Shqipëria"
	},
	{
		"lat": "40.8878546",
		"lon": "20.9724068",
		"name": "Monument Kulture",
		"historic": "monument",
		"address": "Monument Kulture, SH79, Goricë e Vogël, Pustec, Bashkia Pustec, Qarku i Korçës, Shqipëria Jugore, 7014, Shqipëria"
	},
	{
		"lat": "40.9159449",
		"lon": "20.9118962",
		"name": "Maja Grabotit",
		"natural": "peak",
		"address": "Goricë e Madhe, Pustec, Bashkia Pustec, Qarku i Korçës, Shqipëria Jugore, Shqipëria"
	},
	{
		"lat": "41.0870692",
		"lon": "20.6164428",
		"name": "Maja Linit",
		"natural": "peak",
		"address": "Радожда, Општина Струга, Југозападен СР, Северна Македонија"
	},
	{
		"lat": "42.2598006",
		"lon": "21.4321605",
		"name": "Два Гроба",
		"natural": "peak",
		"address": "Shoshare, Komuna e Vitisë / Opština Vitina, 61000, Kosovë"
	},
	{
		"lat": "41.2707102",
		"lon": "21.4443078",
		"name": "Св. Илија",
		"natural": "peak",
		"address": "R1101, Веселчани, Општина Прилеп, Пелагониски СР, 7512, Северна Македонија"
	},
	{
		"lat": "41.169406",
		"lon": "20.837127",
		"name": "Дувало",
		"natural": "volcano",
		"tourism": "attraction",
		"address": "Дувало, A3, Косел, Општина Охрид, Југозападен СР, 6000, Северна Македонија"
	},
	{
		"lat": "42.2345313",
		"lon": "21.4409465",
		"name": "Кодра Фура",
		"natural": "peak",
		"address": "Брест, Танушевци, Општина Чучер Сандево, Скопски СР, Северна Македонија"
	},
	{
		"lat": "41.8771924",
		"lon": "20.5943749",
		"name": "Шерупа / Sherupa / Maja Ksulje e Priftit",
		"natural": "peak",
		"tourism": "attraction",
		"address": "Шерупа / Sherupa / Maja Ksulje e Priftit, Grykë-Çaje, Bashkia Kukës, Qarku i Kukësit, Shqipëria Veriore, 8507, Shqipëria"
	},
	{
		"lat": "42.084404",
		"lon": "21.7570985",
		"name": "Костина Чешма",
		"natural": "peak",
		"address": "Бислимска Клисура - Орловац, Доброшане, Општина Куманово, Североисточен СР, Северна Македонија"
	},
	{
		"lat": "42.0753659",
		"lon": "21.757946",
		"name": "Орловац",
		"natural": "peak",
		"address": "Бислимска Клисура - Орловац, Доброшане, Општина Куманово, Североисточен СР, Северна Македонија"
	},
	{
		"lat": "41.1949131",
		"lon": "22.6876979",
		"name": "Фердинанка",
		"natural": "spring",
		"address": "Фердинанка, Маршал Тито, Стар Дојран, Општина Дојран, Југоисточен СР, 1487, Северна Македонија"
	},
	{
		"lat": "41.1909558",
		"lon": "22.6864905",
		"name": "Кале Тепе",
		"natural": "peak",
		"address": "Фердинанка, Маршал Тито, Стар Дојран, Општина Дојран, Југоисточен СР, 1487, Северна Македонија"
	},
	{
		"lat": "41.8845661",
		"lon": "22.5039935",
		"name": "Теракота",
		"historic": "memorial",
		"address": "Ангел Винички, Виница, Општина Виница, Источен СР, Северна Македонија"
	},
	{
		"lat": "41.1745272",
		"lon": "20.6778868",
		"name": "Никола Кукунешоски - Дунѓерски",
		"historic": "monument",
		"address": "Никола Кукунешоски - Дунѓерски, Борис Кидрич, Струга V, Струга I, Струга, Општина Струга, Југозападен СР, 6330, Северна Македонија"
	},
	{
		"lat": "41.1747311",
		"lon": "20.6779485",
		"name": "Крсте Јовановски",
		"historic": "monument",
		"address": "Крсте Јовановски, Борис Кидрич, Струга V, Струга I, Струга, Општина Струга, Југозападен СР, 6330, Северна Македонија"
	},
	{
		"lat": "41.1749451",
		"lon": "20.6779833",
		"name": "Димче Кошаркоски",
		"historic": "monument",
		"address": "Димче Кошаркоски, Борис Кидрич, Струга V, Струга I, Струга, Општина Струга, Југозападен СР, 6330, Северна Македонија"
	},
	{
		"lat": "41.1756537",
		"lon": "20.6782194",
		"name": "Боро Шаин",
		"historic": "monument",
		"address": "Боро Шаин, Борис Кидрич, Струга V, Струга I, Струга, Општина Струга, Југозападен СР, 6330, Северна Македонија"
	},
	{
		"lat": "41.1755185",
		"lon": "20.6781791",
		"name": "Јово Стефановски - Риле",
		"historic": "monument",
		"address": "Јово Стефановски - Риле, Борис Кидрич, Струга V, Струга I, Струга, Општина Струга, Југозападен СР, 6330, Северна Македонија"
	},
	{
		"lat": "41.1753893",
		"lon": "20.6781416",
		"name": "Разме Малески",
		"historic": "monument",
		"address": "Разме Малески, Борис Кидрич, Струга V, Струга I, Струга, Општина Струга, Југозападен СР, 6330, Северна Македонија"
	},
	{
		"lat": "41.1752843",
		"lon": "20.6781067",
		"name": "Петре Гончески - Гиле",
		"historic": "monument",
		"address": "Петре Гончески - Гиле, Борис Кидрич, Струга V, Струга I, Струга, Општина Струга, Југозападен СР, 6330, Северна Македонија"
	},
	{
		"lat": "42.2673826",
		"lon": "22.4146287",
		"name": "Сиври Тепе",
		"natural": "peak",
		"address": "Китовска махала, Коприва, Кюстендил, България"
	},
	{
		"lat": "41.7367962",
		"lon": "21.3969429",
		"name": "Солунска Глава",
		"natural": "spring",
		"address": "Солунска Глава, Црн Врв, Општина Студеничани, Скопски СР, Северна Македонија"
	},
	{
		"lat": "42.1003011",
		"lon": "21.9665342",
		"name": "Konjuh",
		"historic": "archaeological_site",
		"address": "Konjuh, R29277, Коњух, Општина Кратово, Североисточен СР, Северна Македонија"
	},
	{
		"lat": "42.0949995",
		"lon": "21.9658672",
		"name": "Rotonda Konjuh",
		"historic": "ruins",
		"address": "Rotonda Konjuh, R29277, Коњух, Општина Кратово, Североисточен СР, Северна Македонија"
	},
	{
		"lat": "42.0995746",
		"lon": "21.9606298",
		"name": "Bosko Chapel",
		"historic": "wayside_shrine",
		"address": "Bosko Chapel, R29277, Коњух, Општина Кратово, Североисточен СР, Северна Македонија"
	},
	{
		"lat": "41.7995125",
		"lon": "22.289829",
		"name": "Bargala",
		"historic": "archaeological_site",
		"address": "Баргала, R2431, Вртешка, Радање, Општина Карбинци, Источен СР, Северна Македонија"
	},
	{
		"lat": "41.551541",
		"lon": "21.9735027",
		"name": "Стоби",
		"historic": "archaeological_site",
		"address": "Стоби, Пријателство, Градско, Општина Градско, Вардарски СР, 1422, Северна Македонија"
	},
	{
		"lat": "41.3825161",
		"lon": "22.7542141",
		"name": "Roman Bathhouse",
		"historic": "archaeological_site",
		"address": "Roman \u0026 Ottoman Bathouse, R1402, Банско, Општина Струмица, Југоисточен СР, 2434, Северна Македонија"
	},
	{
		"lat": "41.3716597",
		"lon": "21.2533124",
		"name": "Струнга II",
		"natural": "spring",
		"address": "Струнга II, Нико Доага-Кољка, Струнга, Крушево ВГ, Општина Крушево, Пелагониски СР, 7550, Северна Македонија"
	},
	{
		"lat": "42.0169571",
		"lon": "21.4434502",
		"name": "Doma",
		"historic": "monument",
		"address": "Doma, Kemal Sejfulla, Топанско Поле, Чаир, Скопје, Општина Чаир, Град Скопје, Скопски СР, 1009, Северна Македонија"
	},
	{
		"lat": "41.6835884",
		"lon": "20.9113596",
		"name": "Тепе",
		"natural": "peak",
		"address": "Горна Ѓоновица, Општина Гостивар, Полошки СР, Северна Македонија"
	},
	{
		"lat": "41.7773797",
		"lon": "21.010891",
		"name": "Дупен Камен",
		"natural": "peak",
		"address": "Корито, Општина Гостивар, Полошки СР, Северна Македонија"
	},
	{
		"lat": "41.9651277",
		"lon": "21.3949274",
		"name": "Крстовар",
		"natural": "peak",
		"address": "Милениумски крст, Карпи, Карпош, Скопје, Општина Карпош, Град Скопје, Скопски СР, 1054, Северна Македонија"
	},
	{
		"lat": "41.9107524",
		"lon": "21.1693339",
		"name": "Крстец тепе (1401)",
		"natural": "peak",
		"address": "Луковица, Општина Желино, Полошки СР, Северна Македонија"
	},
	{
		"lat": "41.7541225",
		"lon": "21.5268506",
		"name": "Лисец (1935)",
		"natural": "peak",
		"address": "Долно Јаболчиште, Општина Чашка, Вардарски СР, Северна Македонија"
	},
	{
		"lat": "41.6866577",
		"lon": "21.3697413",
		"name": "Перчулица",
		"natural": "peak",
		"address": "Белица, Општина Македонски Брод, Југозападен СР, Северна Македонија"
	},
	{
		"lat": "41.5703357",
		"lon": "21.8144475",
		"name": "Клепа (1149)",
		"natural": "peak",
		"address": "Двориште, Општина Градско, Вардарски СР, Северна Македонија"
	},
	{
		"lat": "42.3537972",
		"lon": "22.2531053",
		"name": "Чупино Брдо",
		"natural": "peak",
		"address": "Чупино Брдо, Луке, Општина Крива Паланка, Североисточен СР, Северна Македонија"
	},
	{
		"lat": "42.25447",
		"lon": "22.2190329",
		"name": "Стража (1547)",
		"natural": "peak",
		"address": "Огут, Општина Крива Паланка, Североисточен СР, Северна Македонија"
	},
	{
		"lat": "42.0497613",
		"lon": "22.1785293",
		"name": "Плавица",
		"natural": "peak",
		"address": "Шлегово, Приковци, Општина Кратово, Североисточен СР, Северна Македонија"
	},
	{
		"lat": "42.0198299",
		"lon": "22.0010017",
		"name": "Асаница (874)",
		"natural": "peak",
		"address": "KY-01, Ваклинци, Татомир, Општина Кратово, Североисточен СР, Северна Македонија"
	},
	{
		"lat": "41.6478507",
		"lon": "22.6489053",
		"name": "Грамадник",
		"natural": "peak",
		"address": "Владимирово, Општина Берово, Источен СР, Северна Македонија"
	},
	{
		"lat": "41.4600744",
		"lon": "22.5408101",
		"name": "Елешница (971)",
		"natural": "peak",
		"address": "Вељуса, Општина Струмица, Југоисточен СР, Северна Македонија"
	},
	{
		"lat": "41.3777219",
		"lon": "22.5229381",
		"name": "Кара тепе (997)",
		"natural": "peak",
		"address": "Чепели, Општина Струмица, Југоисточен СР, Северна Македонија"
	},
	{
		"lat": "41.4681966",
		"lon": "22.3347788",
		"name": "Волчjак (1159)",
		"natural": "peak",
		"address": "Северна Македонија"
	},
	{
		"lat": "41.1608157",
		"lon": "22.2064366",
		"name": "Μεγάλη Τζένα",
		"natural": "peak",
		"address": "\u003eΚορυφές (Τζένα), Δήμος Αλμωπίας, Περιφερειακή Ενότητα Πέλλας, Περιφέρεια Κεντρικής Μακεδονίας, Αποκεντρωμένη Διοίκηση Μακεδονίας - Θράκης, Ελλάς"
	},
	{
		"lat": "41.1349014",
		"lon": "21.9081759",
		"name": "Балтова Чука",
		"natural": "peak",
		"address": "Полчиште, Општина Прилеп, Пелагониски СР, Северна Македонија"
	},
	{
		"lat": "41.2079581",
		"lon": "21.616292",
		"name": "Висока",
		"natural": "peak",
		"address": "Пелагон, R1107, Кален, Општина Прилеп, Пелагониски СР, Северна Македонија"
	},
	{
		"lat": "41.3282998",
		"lon": "21.6496006",
		"name": "Студеница / Ливада",
		"natural": "peak",
		"address": "Општина Прилеп, Пелагониски СР, Северна Македонија"
	},
	{
		"lat": "41.3482919",
		"lon": "21.8273568",
		"name": "Чаве (1557)",
		"natural": "peak",
		"address": "Голем Радобил, Општина Прилеп, Пелагониски СР, Северна Македонија"
	},
	{
		"lat": "41.1154999",
		"lon": "21.2038007",
		"name": "Бел Камен",
		"natural": "peak",
		"address": "Облаково, Општина Битола, Пелагониски СР, Северна Македонија"
	},
	{
		"lat": "41.3844089",
		"lon": "21.0761965",
		"name": "Кафчал",
		"natural": "peak",
		"address": "Цер, Општина Кичево, Југозападен СР, Северна Македонија"
	},
	{
		"lat": "41.4598169",
		"lon": "20.8544853",
		"name": "Вели Врв",
		"natural": "peak",
		"address": "Општина Кичево, Југозападен СР, Северна Македонија"
	},
	{
		"lat": "41.3745767",
		"lon": "20.7633069",
		"name": "Славеj",
		"natural": "peak",
		"address": "Mirče Acev Bataljon, A2, Издеглавје, Општина Дебарца, Југозападен СР, Северна Македонија"
	},
	{
		"lat": "42.1937149",
		"lon": "21.0889384",
		"name": "Куле",
		"natural": "peak",
		"address": "Štrpce, Komuna e Shtërpcës / Opština Štrpce, 73000, Kosovë"
	},
	{
		"lat": "42.1759613",
		"lon": "21.0573746",
		"name": "Пири Брег",
		"natural": "peak",
		"address": "Rruga e Antenes, Brezovicë, Komuna e Shtërpcës / Opština Štrpce, 73000, Kosovë"
	},
	{
		"lat": "42.167736",
		"lon": "21.0428229",
		"name": "2395",
		"natural": "peak",
		"address": "Sharrës, Brezovicë, Komuna e Shtërpcës / Opština Štrpce, 73000, Kosovë"
	},
	{
		"lat": "42.1564493",
		"lon": "21.0520053",
		"name": "Баjрак (2265)",
		"natural": "peak",
		"address": "Општина Теарце, Полошки СР, Северна Македонија"
	},
	{
		"lat": "42.1532417",
		"lon": "21.027197",
		"name": "Црн Камен",
		"natural": "peak",
		"address": "Првце, Општина Теарце, Полошки СР, Северна Македонија"
	},
	{
		"lat": "42.146138",
		"lon": "21.0199836",
		"name": "Тумба",
		"natural": "peak",
		"address": "Доброште, Општина Теарце, Полошки СР, Северна Македонија"
	},
	{
		"lat": "42.1462074",
		"lon": "21.0029067",
		"name": "Езерски Врв",
		"natural": "peak",
		"address": "Доброште, Општина Теарце, Полошки СР, Северна Македонија"
	},
	{
		"lat": "42.116675",
		"lon": "20.9150611",
		"name": "Јовин Камен",
		"natural": "peak",
		"address": "Вејце, Општина Тетово, Полошки СР, Северна Македонија"
	},
	{
		"lat": "42.0697056",
		"lon": "20.8016188",
		"name": "Шереметица",
		"natural": "peak",
		"address": "Бозовце, Општина Тетово, Полошки СР, Северна Македонија"
	},
	{
		"lat": "42.0144723",
		"lon": "20.7517713",
		"name": "Косовиќ",
		"natural": "peak",
		"address": "Бозовце, Општина Тетово, Полошки СР, Северна Македонија"
	},
	{
		"lat": "41.9620861",
		"lon": "20.7891569",
		"name": "2436",
		"natural": "peak",
		"address": "Ново Село, Општина Боговиње, Полошки СР, Северна Македонија"
	},
	{
		"lat": "41.9928771",
		"lon": "20.7738229",
		"name": "2416",
		"natural": "peak",
		"address": "Бозовце, Општина Тетово, Полошки СР, Северна Македонија"
	},
	{
		"lat": "42.0038671",
		"lon": "20.7734143",
		"name": "Крива Шија",
		"natural": "peak",
		"address": "Бозовце, Општина Тетово, Полошки СР, Северна Македонија"
	},
	{
		"lat": "41.9836995",
		"lon": "20.7972825",
		"name": "Турчин",
		"natural": "peak",
		"address": "Мал Турчин, Урвич, Општина Боговиње, Полошки СР, Северна Македонија"
	},
	{
		"lat": "41.9468037",
		"lon": "20.754667",
		"name": "Челепински Врв",
		"natural": "peak",
		"address": "Komuna e Dragashit / Opština Dragaš, Kosovë"
	},
	{
		"lat": "41.9332206",
		"lon": "20.78183",
		"name": "Езерски рид",
		"natural": "peak",
		"address": "Полошки СР, Северна Македонија"
	},
	{
		"lat": "42.0982202",
		"lon": "20.8744086",
		"name": "Treskavec (2435)",
		"natural": "peak",
		"address": "To Peak Treskavec, Бродец, Општина Тетово, Полошки СР, Северна Македонија"
	},
	{
		"lat": "41.8690176",
		"lon": "20.7667591",
		"name": "Бел Камен",
		"natural": "peak",
		"address": "Калиште, Општина Врапчиште, Полошки СР, Северна Македонија"
	},
	{
		"lat": "41.2398154",
		"lon": "20.5897918",
		"name": "Vevčani",
		"natural": "spring",
		"address": "Вевчани, Општина Вевчани, Југозападен СР, 6335, Северна Македонија"
	},
	{
		"lat": "41.1057278",
		"lon": "20.8078335",
		"name": "Ард ден Долард",
		"historic": "memorial",
		"address": "Ард ден Долард, Кеј Македонија, Крст Џамија, Охрид, Општина Охрид, Југозападен СР, 6000, Северна Македонија"
	},
	{
		"lat": "41.7272826",
		"lon": "22.9867556",
		"name": "Скокото",
		"natural": "cliff",
		"address": "Пехчево, Општина Пехчево, Источен СР, Северна Македонија"
	},
	{
		"lat": "41.1594837",
		"lon": "22.2093423",
		"name": "Τζένα",
		"natural": "peak",
		"address": "\u003eΚορυφές (Τζένα), Δήμος Αλμωπίας, Περιφερειακή Ενότητα Πέλλας, Περιφέρεια Κεντρικής Μακεδονίας, Αποκεντρωμένη Διοίκηση Μακεδονίας - Θράκης, Ελλάς"
	},
	{
		"lat": "42.336363",
		"lon": "22.3261335",
		"name": "Голешки чукар",
		"natural": "peak",
		"address": "5, 444, Голеш, Општина Босилеград, Пчињски управни округ, Централна Србија, Србија"
	},
	{
		"lat": "42.3333932",
		"lon": "22.1824946",
		"name": "Кита",
		"natural": "peak",
		"address": "Калово, Општина Трговиште, Пчињски управни округ, Централна Србија, 17525, Србија"
	},
	{
		"lat": "41.9957136",
		"lon": "21.4306041",
		"name": "Методија Андонов - Ченто",
		"historic": "memorial",
		"address": "Методија Андонов - Ченто, Максим Горки, Дебар Маало, Центар, Скопје, Општина Центар, Град Скопје, Скопски СР, 1111, Северна Македонија"
	},
	{
		"lat": "41.9974433",
		"lon": "20.9681527",
		"name": "terminal mitnitsa tetovo",
		"historic": "monument",
		"address": "terminal mitnitsa tetovo, Видое Смилевски Бато, Тетово, Општина Тетово, Полошки СР, 1200, Северна Македонија"
	},
	{
		"lat": "41.9834",
		"lon": "21.6414729",
		"name": "payatina-150",
		"historic": "monument",
		"address": "A2, Миладиновци, Општина Илинден, Скопски СР, 1043, Северна Македонија"
	},
	{
		"lat": "41.9885405",
		"lon": "21.2926787",
		"name": "patarina-160",
		"historic": "monument",
		"address": "patarina-160, Мајка Тереза, Глумово, Општина Сарај, Град Скопје, Скопски СР, Северна Македонија"
	},
	{
		"lat": "41.9833393",
		"lon": "21.6414385",
		"name": "patarina-150",
		"historic": "monument",
		"address": "A2, Миладиновци, Општина Илинден, Скопски СР, 1043, Северна Македонија"
	},
	{
		"lat": "41.2558777",
		"lon": "21.4691761",
		"name": "Страга",
		"natural": "peak",
		"address": "Алинци, Општина Прилеп, Пелагониски СР, Северна Македонија"
	},
	{
		"lat": "41.9702926",
		"lon": "22.8761371",
		"name": "Обел",
		"natural": "peak",
		"address": "Стоймирска мах., Благоевград, 2738, България"
	},
	{
		"lat": "41.8767879",
		"lon": "22.9162824",
		"name": "Момина сълза / Момина Солза",
		"natural": "peak",
		"address": "Качулска мах., Габрово, Благоевград, 2747, България"
	},
	{
		"lat": "41.720174",
		"lon": "22.6570763",
		"name": "Паруца",
		"natural": "peak",
		"address": "Споменик на Малешевскиот (Малешки) народноослободителен одред, Будинарци, Општина Берово, Источен СР, Северна Македонија"
	},
	{
		"lat": "41.7213441",
		"lon": "22.6569551",
		"name": "Споменик на Малешевскиот (Малешки) народноослободителен одред",
		"historic": "memorial",
		"address": "Споменик на Малешевскиот (Малешки) народноослободителен одред, Будинарци, Општина Берово, Источен СР, Северна Македонија"
	},
	{
		"lat": "41.0043725",
		"lon": "20.9282003",
		"name": "Кале",
		"historic": "archaeological_site",
		"address": "Кале, R1307, Сирхан, Шурленци, Општина Ресен, Пелагониски СР, Северна Македонија"
	},
	{
		"lat": "41.9028536",
		"lon": "22.2875806",
		"name": "Курилово",
		"natural": "peak",
		"address": "Соколарци, Општина Чешиново-Облешево, Источен СР, Северна Македонија"
	},
	{
		"lat": "41.9917848",
		"lon": "22.6344266",
		"name": "Дедоантоска Чука",
		"natural": "peak",
		"address": "Илиово, Општина Делчево, Источен СР, Северна Македонија"
	},
	{
		"lat": "41.9856377",
		"lon": "22.5905605",
		"name": "Калата",
		"historic": "archaeological_site",
		"address": "Калата, A3, Дулица, Општина Македонска Каменица, Источен СР, Северна Македонија"
	},
	{
		"lat": "40.9288323",
		"lon": "20.9011891",
		"name": "Вршина",
		"natural": "peak",
		"address": "R1307, Стење, Општина Ресен, Пелагониски СР, Северна Македонија"
	},
	{
		"lat": "40.9519626",
		"lon": "20.9152191",
		"name": "зал. Лиса",
		"natural": "bay",
		"address": "Општина Ресен, Пелагониски СР, Северна Македонија"
	},
	{
		"lat": "42.2124134",
		"lon": "22.3307392",
		"name": "Шилегарник",
		"natural": "peak",
		"address": "Крива Паланка, Општина Крива Паланка, Североисточен СР, 1330, Северна Македонија"
	},
	{
		"lat": "41.8639546",
		"lon": "21.1981863",
		"name": "Голубарник",
		"natural": "peak",
		"address": "Луковица, Општина Желино, Полошки СР, Северна Македонија"
	},
	{
		"lat": "41.8718906",
		"lon": "21.2022468",
		"name": "Средни Рид",
		"natural": "peak",
		"address": "R1106, Кула, Нова Брезница, Општина Сопиште, Скопски СР, Северна Македонија"
	},
	{
		"lat": "41.8762428",
		"lon": "21.2214487",
		"name": "Говедарник",
		"natural": "peak",
		"address": "Луковица, Општина Желино, Полошки СР, Северна Македонија"
	},
	{
		"lat": "41.816217",
		"lon": "21.1686464",
		"name": "Градец",
		"natural": "peak",
		"address": "Здуње, Општина Македонски Брод, Југозападен СР, Северна Македонија"
	},
	{
		"lat": "41.810404",
		"lon": "21.1535065",
		"name": "Теме",
		"natural": "peak",
		"address": "Здуње, Општина Македонски Брод, Југозападен СР, Северна Македонија"
	},
	{
		"lat": "41.854659",
		"lon": "21.1672263",
		"name": "Костен",
		"natural": "peak",
		"address": "Здуње, Општина Македонски Брод, Југозападен СР, Северна Македонија"
	},
	{
		"lat": "41.7338317",
		"lon": "21.3106995",
		"name": "Боро Поле",
		"natural": "cliff",
		"address": "Тажево, Општина Македонски Брод, Југозападен СР, Северна Македонија"
	},
	{
		"lat": "41.6087116",
		"lon": "21.213175",
		"name": "Велја Краста",
		"natural": "peak",
		"address": "R1106, Драгов Дол, Општина Македонски Брод, Југозападен СР, 6530, Северна Македонија"
	},
	{
		"lat": "41.611362",
		"lon": "21.2057276",
		"name": "Мало Брдо",
		"natural": "peak",
		"address": "Тополница, Манастирец, Општина Македонски Брод, Југозападен СР, Северна Македонија"
	},
	{
		"lat": "41.5913966",
		"lon": "21.2039337",
		"name": "Баба",
		"natural": "peak",
		"address": "Горни Манастирец, Манастирец, Општина Македонски Брод, Југозападен СР, Северна Македонија"
	},
	{
		"lat": "41.1212313",
		"lon": "22.4793483",
		"name": "Чучулен",
		"natural": "peak",
		"address": "Гевгелија, Општина Гевгелија, Југоисточен СР, 1480, Северна Македонија"
	},
	{
		"lat": "41.7596707",
		"lon": "21.7565",
		"name": "Бајраче",
		"natural": "peak",
		"address": "Башино Село, Општина Велес, Вардарски СР, Северна Македонија"
	},
	{
		"lat": "41.5866319",
		"lon": "21.608127",
		"name": "Плевенски Рид",
		"natural": "peak",
		"address": "Плевење, Општина Чашка, Вардарски СР, Северна Македонија"
	},
	{
		"lat": "41.6885987",
		"lon": "21.584349",
		"name": "Вршник",
		"natural": "peak",
		"address": "Горно Врановци, Општина Чашка, Вардарски СР, Северна Македонија"
	},
	{
		"lat": "41.8473462",
		"lon": "21.6533956",
		"name": "Маленица",
		"natural": "peak",
		"address": "Галева Вода, R2131, Катланово, Општина Петровец, Скопски СР, 1034, Северна Македонија"
	},
	{
		"lat": "41.852441",
		"lon": "21.6511755",
		"name": "Галева Вода",
		"natural": "spring",
		"address": "Галева Вода, R2131, Катланово, Општина Петровец, Скопски СР, 1034, Северна Македонија"
	},
	{
		"lat": "41.8835893",
		"lon": "21.695401",
		"name": "Чукар",
		"natural": "peak",
		"address": "Бадар, Општина Петровец, Скопски СР, Северна Македонија"
	},
	{
		"lat": "41.8921604",
		"lon": "21.6939308",
		"name": "Пржар",
		"natural": "peak",
		"address": "Катланово, Општина Петровец, Скопски СР, Северна Македонија"
	},
	{
		"lat": "41.8797343",
		"lon": "21.7058622",
		"name": "Црвени Мел",
		"natural": "peak",
		"address": "Пријателство - тунел катланово, Брезница, Општина Петровец, Скопски СР, Северна Македонија"
	},
	{
		"lat": "41.2527834",
		"lon": "22.6734138",
		"name": "Мала Боска",
		"natural": "peak",
		"address": "Ѓопчели, Општина Дојран, Југоисточен СР, Северна Македонија"
	},
	{
		"lat": "41.7291181",
		"lon": "21.0811442",
		"name": "Ќуле",
		"natural": "peak",
		"address": "Долно Ботушје, Ботушје, Општина Македонски Брод, Југозападен СР, Северна Македонија"
	},
	{
		"lat": "40.9855234",
		"lon": "21.1783297",
		"name": "Широко Стапало",
		"natural": "peak",
		"address": "Патека до Антена, Мало и Големо Езеро, Нижеполе, Општина Битола, Пелагониски СР, Северна Македонија"
	},
	{
		"lat": "41.033712",
		"lon": "21.2460858",
		"name": "Диховски Рид",
		"natural": "peak",
		"address": "Трново, Општина Битола, Пелагониски СР, Северна Македонија"
	},
	{
		"lat": "41.5555369",
		"lon": "20.9801945",
		"name": "Чука",
		"natural": "peak",
		"address": "Црвивци, Општина Кичево, Југозападен СР, Северна Македонија"
	},
	{
		"lat": "41.5607694",
		"lon": "20.988423",
		"name": "Џамбазово Брдо",
		"natural": "peak",
		"address": "Црвивци, Општина Кичево, Југозападен СР, Северна Македонија"
	},
	{
		"lat": "41.9638827",
		"lon": "21.3822659",
		"name": "Абедиште",
		"natural": "peak",
		"address": "Видиковец, Гунда, Карпош, Горно Нерези, Општина Карпош, Град Скопје, Скопски СР, 9100, Северна Македонија"
	},
	{
		"lat": "41.6951872",
		"lon": "20.7746035",
		"name": "Црн Камен",
		"natural": "peak",
		"address": "R2235, Никифорово, Општина Маврово и Ростуша, Полошки СР, 1245, Северна Македонија"
	},
	{
		"lat": "41.6952366",
		"lon": "21.628172",
		"name": "Бањичко Кале",
		"historic": "archaeological_site",
		"address": "Бањичко Кале, R2344, Дреново, Општина Чашка, Вардарски СР, Северна Македонија"
	},
	{
		"lat": "41.5704997",
		"lon": "22.1308595",
		"name": "Орлово Брдо",
		"natural": "peak",
		"address": "Јаношево, Општина Неготино, Вардарски СР, Северна Македонија"
	},
	{
		"lat": "41.7023494",
		"lon": "20.9183188",
		"name": "Убавица",
		"natural": "cave_entrance",
		"address": "Убавица, Пруга со тесен колосек Скопје - Охрид, Долна Ѓоновица, Општина Гостивар, Полошки СР, Северна Македонија"
	},
	{
		"lat": "42.0694302",
		"lon": "22.1792146",
		"name": "Баба",
		"natural": "peak",
		"address": "R1205, Приковци, Кратово, Општина Кратово, Североисточен СР, Северна Македонија"
	},
	{
		"lat": "41.2737062",
		"lon": "22.3237516",
		"name": "Висока Чука",
		"natural": "peak",
		"address": "Петрово, Општина Гевгелија, Југоисточен СР, Северна Македонија"
	},
	{
		"lat": "41.3711842",
		"lon": "22.060305",
		"name": "Студена Вода",
		"natural": "spring",
		"address": "Студена Вода, R1107, Ваташа, Дабниште, Општина Кавадарци, Вардарски СР, 1430, Северна Македонија"
	},
	{
		"lat": "41.3682843",
		"lon": "22.0701097",
		"name": "Градот",
		"natural": "peak",
		"address": "Ваташа, Општина Кавадарци, Вардарски СР, Северна Македонија"
	},
	{
		"lat": "41.3616703",
		"lon": "22.0518352",
		"name": "Крстот",
		"natural": "peak",
		"address": "R1107, Ваташа, Гарниково, Општина Кавадарци, Вардарски СР, 1430, Северна Македонија"
	},
	{
		"lat": "41.3602978",
		"lon": "22.0613175",
		"name": "Габерот",
		"natural": "peak",
		"address": "Бунарче, Општина Кавадарци, Вардарски СР, Северна Македонија"
	},
	{
		"lat": "41.3563223",
		"lon": "22.0705014",
		"name": "Три Дабици",
		"natural": "peak",
		"address": "Страгово, Општина Кавадарци, Вардарски СР, Северна Македонија"
	},
	{
		"lat": "42.1194334",
		"lon": "21.7556476",
		"name": "Голем Рид",
		"natural": "peak",
		"address": "Арапов Кладенец, R1204, Куманово, Општина Куманово, Североисточен СР, 1300, Северна Македонија"
	},
	{
		"lat": "42.1186098",
		"lon": "21.7598928",
		"name": "Арапов Кладенец",
		"natural": "spring",
		"address": "Арапов Кладенец, R1204, Куманово, Општина Куманово, Североисточен СР, 1300, Северна Македонија"
	},
	{
		"lat": "42.1308925",
		"lon": "21.7394697",
		"name": "Елезов Камен",
		"natural": "peak",
		"address": "Ѓорче Петров, Проевце, Куманово, Општина Куманово, Североисточен СР, 1300, Северна Македонија"
	},
	{
		"lat": "41.3747079",
		"lon": "20.7630424",
		"name": "Mirče Acev Bataljon",
		"historic": "monument",
		"address": "Mirče Acev Bataljon, A2, Издеглавје, Општина Дебарца, Југозападен СР, Северна Македонија"
	},
	{
		"lat": "41.8079301",
		"lon": "22.5606899",
		"name": "Чупино Брдо",
		"natural": "peak",
		"address": "Блатец, Општина Виница, Источен СР, Северна Македонија"
	},
	{
		"lat": "41.3914345",
		"lon": "20.7075516",
		"name": "Алипашица",
		"natural": "peak",
		"address": "Годивје, Општина Дебарца, Југозападен СР, Северна Македонија"
	},
	{
		"lat": "40.9741348",
		"lon": "21.1843498",
		"name": "Партизански Врв",
		"natural": "peak",
		"address": "Патека до Антена, Мало и Големо Езеро, Нижеполе, Општина Битола, Пелагониски СР, Северна Македонија"
	},
	{
		"lat": "40.9630214",
		"lon": "21.1982806",
		"name": "Ветерница",
		"natural": "peak",
		"address": "Нижеполе, Општина Битола, Пелагониски СР, Северна Македонија"
	},
	{
		"lat": "42.1958557",
		"lon": "21.8576129",
		"name": "Strnovac Banja",
		"natural": "spring",
		"address": "Strnovac Banja, R1207, Алгуња, Старо Нагоричане, Општина Старо Нагоричане, Североисточен СР, Северна Македонија"
	},
	{
		"lat": "41.1493244",
		"lon": "22.0745075",
		"name": "Οργωμένο",
		"natural": "hill",
		"address": "Οργωμένο, Δήμος Αλμωπίας, Περιφερειακή Ενότητα Πέλλας, Περιφέρεια Κεντρικής Μακεδονίας, Αποκεντρωμένη Διοίκηση Μακεδονίας - Θράκης, Ελλάς"
	},
	{
		"lat": "41.1535951",
		"lon": "22.1703261",
		"name": "2085",
		"natural": "peak",
		"address": "Βακούφια, Δήμος Αλμωπίας, Περιφερειακή Ενότητα Πέλλας, Περιφέρεια Κεντρικής Μακεδονίας, Αποκεντρωμένη Διοίκηση Μακεδονίας - Θράκης, Ελλάς"
	},
	{
		"lat": "40.9943752",
		"lon": "21.8465669",
		"name": "Σολούνα",
		"natural": "spring",
		"address": "Σολούνα, E6, Δήμος Αλμωπίας, Περιφερειακή Ενότητα Πέλλας, Περιφέρεια Κεντρικής Μακεδονίας, Αποκεντρωμένη Διοίκηση Μακεδονίας - Θράκης, Ελλάς"
	},
	{
		"lat": "41.6733298",
		"lon": "21.3201023",
		"name": "Голубарница",
		"natural": "cave_entrance",
		"address": "Голубарница, Белица, Општина Македонски Брод, Југозападен СР, Северна Македонија"
	},
	{
		"lat": "41.6682174",
		"lon": "21.3230413",
		"name": "Лапарница",
		"natural": "cave_entrance",
		"address": "Лапарница, Белица, Општина Македонски Брод, Југозападен СР, Северна Македонија"
	},
	{
		"lat": "41.9943288",
		"lon": "21.4307922",
		"name": "2 musicians and one dancing man",
		"historic": "memorial",
		"address": "2 musicians and one dancing man, Македонија, Дебар Маало, Центар, Скопје, Општина Центар, Град Скопје, Скопски СР, 1111, Северна Македонија"
	},
	{
		"lat": "41.1124032",
		"lon": "20.8071328",
		"name": "Henry Dunant",
		"historic": "memorial",
		"address": "Henry Dunant, Димитар Влахов, Крст Џамија, Охрид, Општина Охрид, Југозападен СР, 6000, Северна Македонија"
	},
	{
		"lat": "41.2754595",
		"lon": "21.3684104",
		"name": "Љубе Грујоски",
		"historic": "monument",
		"address": "Љубе Грујоски, Пашино Рувци, Општина Кривогаштани, Пелагониски СР, 7525, Северна Македонија"
	},
	{
		"lat": "41.3005482",
		"lon": "22.634426",
		"name": "Красица",
		"natural": "peak",
		"address": "Татарли, Чалакли, Општина Валандово, Југоисточен СР, Северна Македонија"
	},
	{
		"lat": "41.3690819",
		"lon": "21.9670205",
		"name": "Плочата",
		"natural": "peak",
		"address": "Бегниште, Општина Кавадарци, Вардарски СР, Северна Македонија"
	},
	{
		"lat": "42.0055931",
		"lon": "22.2247732",
		"name": "Lesnovo Mill Stone Caves",
		"natural": "cave_entrance",
		"address": "Lesnovo Mill Stone Caves, R1309, Древено, Општина Пробиштип, Источен СР, Северна Македонија"
	},
	{
		"lat": "42.0077476",
		"lon": "22.2262712",
		"name": "Lesnovo Mill Stone Caves",
		"natural": "cave_entrance",
		"address": "Lesnovo Mill Stone Caves, R1309, Древено, Општина Пробиштип, Источен СР, Северна Македонија"
	},
	{
		"lat": "42.0081751",
		"lon": "22.2261518",
		"name": "Lesnovo Mill Stone Caves",
		"natural": "cave_entrance",
		"address": "Lesnovo Mill Stone Caves, R1309, Древено, Општина Пробиштип, Источен СР, Северна Македонија"
	},
	{
		"lat": "42.007628",
		"lon": "22.2251809",
		"name": "Lesnovo Mill Stone Caves",
		"natural": "cave_entrance",
		"address": "Lesnovo Mill Stone Caves, R1309, Древено, Општина Пробиштип, Источен СР, Северна Македонија"
	},
	{
		"lat": "41.1857198",
		"lon": "22.7227512",
		"name": "Споменик на Дојрана",
		"historic": "monument",
		"address": "Споменик на Дојрана, Кај 5 ти Ноември, Стар Дојран, Општина Дојран, Југоисточен СР, 1487, Северна Македонија"
	},
	{
		"lat": "41.1825947",
		"lon": "22.7233826",
		"name": "Чешма Света Петка",
		"historic": "monument",
		"address": "Чешма Света Петка, Маршал Тито, Стар Дојран, Општина Дојран, Југоисточен СР, 1487, Северна Македонија"
	},
	{
		"lat": "41.794175",
		"lon": "22.442371",
		"name": "Црквиште",
		"natural": "peak",
		"address": "Црквиште - Комуникациски Пункт, шумски пат, Вртешка, Општина Карбинци, Источен СР, Северна Македонија"
	},
	{
		"lat": "42.027804",
		"lon": "20.7499356",
		"name": "Клеч",
		"natural": "peak",
		"address": "Sorupa Lake, Бозовце, Општина Тетово, Полошки СР, Северна Македонија"
	},
	{
		"lat": "41.5552855",
		"lon": "21.697086",
		"name": "Izvor",
		"natural": "spring",
		"address": "Izvor, R1312, Владиловци, Извор, Општина Чашка, Вардарски СР, Северна Македонија"
	},
	{
		"lat": "41.1850048",
		"lon": "20.7762352",
		"name": "AXX110 / RA-42390",
		"historic": "memorial",
		"address": "AXX110 / RA-42390, Горенци, Општина Дебарца, Југозападен СР, Северна Македонија"
	},
	{
		"lat": "41.9779001",
		"lon": "21.6157628",
		"name": "PMK301 / PH-KXL",
		"historic": "memorial",
		"address": "PMK301 / PH-KXL, A2, Бунарџик, Општина Илинден, Скопски СР, 1043, Северна Македонија"
	},
	{
		"lat": "41.2895356",
		"lon": "21.5960119",
		"name": "19-12-1942",
		"historic": "memorial",
		"address": "19.12.1942, R1107, Штавица, Општина Прилеп, Пелагониски СР, Северна Македонија"
	},
	{
		"lat": "41.5476627",
		"lon": "21.2531242",
		"name": "Пешна",
		"natural": "cave_entrance",
		"address": "Пешна, R1106, Локвица, Општина Македонски Брод, Југозападен СР, 6530, Северна Македонија"
	},
	{
		"lat": "42.022416",
		"lon": "21.5476216",
		"name": "Ацо Ангеловски",
		"historic": "memorial",
		"address": "Ацо Ангеловски, Методија Андонов Ченто, Брњарци, Општина Гази Баба, Град Скопје, Скопски СР, 1041, Северна Македонија"
	},
	{
		"lat": "42.0225556",
		"lon": "21.5480468",
		"name": "Кирил Петрушевски",
		"historic": "memorial",
		"address": "Кирил Петрушевски, Методија Андонов Ченто, Брњарци, Општина Гази Баба, Град Скопје, Скопски СР, 1041, Северна Македонија"
	},
	{
		"lat": "42.0227044",
		"lon": "21.5486015",
		"name": "Ерол Готак",
		"historic": "memorial",
		"address": "Ерол Готак, Методија Андонов Ченто, Брњарци, Општина Гази Баба, Град Скопје, Скопски СР, 1041, Северна Македонија"
	},
	{
		"lat": "41.3400467",
		"lon": "21.2560134",
		"name": "Мечкин Камен",
		"natural": "peak",
		"address": "LWKS2, R1306, Ѓупско Маало, Крушево ВГ, Општина Крушево, Пелагониски СР, 7550, Северна Македонија"
	},
	{
		"lat": "41.9723179",
		"lon": "21.1739792",
		"name": "Мајкин Крст",
		"natural": "peak",
		"address": "Веби Рушитоски, R1206, Рогле, Општина Желино, Град Скопје, Полошки СР, Северна Македонија"
	},
	{
		"lat": "41.9764851",
		"lon": "21.1660504",
		"name": "Нане Наумоски",
		"historic": "memorial",
		"address": "Масакр кај Карпалак, Мајка Тереза, Рогле, Општина Желино, Полошки СР, Северна Македонија"
	},
	{
		"lat": "41.977847",
		"lon": "21.1773385",
		"name": "Сашо Китаноски",
		"historic": "memorial",
		"address": "Сашо Китаноски, Масакр кај Карпалак, Рогле, Општина Желино, Полошки СР, Северна Македонија"
	},
	{
		"lat": "41.97753",
		"lon": "21.1679024",
		"name": "Бранко Секулоски",
		"historic": "memorial",
		"address": "Бранко Секулоски, Масакр кај Карпалак, Рогле, Општина Желино, Полошки СР, Северна Македонија"
	},
	{
		"lat": "41.9781971",
		"lon": "21.1745241",
		"name": "Горан Миноски",
		"historic": "memorial",
		"address": "Горан Миноски, Масакр кај Карпалак, Рогле, Општина Желино, Полошки СР, Северна Македонија"
	},
	{
		"lat": "41.977893",
		"lon": "21.1713626",
		"name": "Марко Деспотоски",
		"historic": "memorial",
		"address": "Марко Деспотоски, Масакр кај Карпалак, Рогле, Општина Желино, Полошки СР, Северна Македонија"
	},
	{
		"lat": "41.9767167",
		"lon": "21.1675604",
		"name": "Ердован Шабаноски",
		"historic": "memorial",
		"address": "Масакр кај Карпалак, Мајка Тереза, Рогле, Општина Желино, Полошки СР, Северна Македонија"
	},
	{
		"lat": "41.9772958",
		"lon": "21.1694976",
		"name": "Љубе Грујоски",
		"historic": "memorial",
		"address": "Љубе Грујоски, R1206, Рогле, Општина Желино, Град Скопје, Полошки СР, Северна Македонија"
	},
	{
		"lat": "41.9770406",
		"lon": "21.1717935",
		"name": "Дарко Велјаноски",
		"historic": "memorial",
		"address": "Дарко Велјаноски, R1206, Рогле, Општина Желино, Град Скопје, Полошки СР, Северна Македонија"
	},
	{
		"lat": "41.9767893",
		"lon": "21.1747438",
		"name": "Веби Рушитоски",
		"historic": "memorial",
		"address": "Веби Рушитоски, R1206, Рогле, Општина Желино, Град Скопје, Полошки СР, Северна Македонија"
	},
	{
		"lat": "41.977042",
		"lon": "21.1770879",
		"name": "Пеце Секулоски",
		"historic": "memorial",
		"address": "Пеце Секулоски, R1206, Рогле, Општина Желино, Град Скопје, Полошки СР, Северна Македонија"
	},
	{
		"lat": "41.1069317",
		"lon": "20.6323074",
		"name": "Св. Архангел Михаил",
		"natural": "cave_entrance",
		"address": "Св. Архангел Михаил, Радожда, Општина Струга, Југозападен СР, Северна Македонија"
	},
	{
		"lat": "40.9804112",
		"lon": "21.2693605",
		"name": "Неолица",
		"natural": "peak",
		"address": "Нижеполе, Општина Битола, Пелагониски СР, Северна Македонија"
	},
	{
		"lat": "42.3091333",
		"lon": "22.0576",
		"name": "Голема клада",
		"natural": "peak",
		"address": "Широка Планина, Општина Трговиште, Пчињски управни округ, Централна Србија, 17525, Србија"
	},
	{
		"lat": "42.3016167",
		"lon": "21.9009333",
		"name": "Градиште",
		"natural": "peak",
		"address": "Жегљане, Општина Старо Нагоричане, Североисточен СР, Северна Македонија"
	},
	{
		"lat": "42.3040167",
		"lon": "21.9123334",
		"name": "Китка",
		"natural": "peak",
		"address": "Малотино, Општина Старо Нагоричане, Североисточен СР, Северна Македонија"
	},
	{
		"lat": "41.9456547",
		"lon": "21.2733937",
		"name": "Штрбина",
		"natural": "peak",
		"address": "Чајлане, Општина Сарај, Град Скопје, Скопски СР, Северна Македонија"
	},
	{
		"lat": "41.9407872",
		"lon": "21.2466789",
		"name": "Раса",
		"natural": "peak",
		"address": "Буковиќ, Општина Сарај, Град Скопје, Скопски СР, Северна Македонија"
	},
	{
		"lat": "41.3575814",
		"lon": "21.6256855",
		"name": "Карпалак",
		"historic": "memorial",
		"address": "Карпалак, R1101, Лениште, Општина Прилеп, Пелагониски СР, Северна Македонија"
	},
	{
		"lat": "41.4014262",
		"lon": "22.0284286",
		"name": "Масакр во Ваташа",
		"historic": "memorial",
		"address": "Масакр во Ваташа, R1107, Ваташа, Општина Кавадарци, Вардарски СР, 1430, Северна Македонија"
	},
	{
		"lat": "41.3428752",
		"lon": "21.5583672",
		"name": "Пере Тошев",
		"historic": "tomb",
		"address": "Пере Тошев, Александар Македонски, Рид, Прилеп I, Прилеп, Општина Прилеп, Пелагониски СР, 7500, Северна Македонија"
	},
	{
		"lat": "41.3236443",
		"lon": "21.6030584",
		"name": "Момата",
		"natural": "cliff",
		"address": "Селце, Општина Прилеп, Пелагониски СР, Северна Македонија"
	},
	{
		"lat": "41.3586092",
		"lon": "21.5408681",
		"name": "Слон",
		"natural": "cliff",
		"address": "Слонот, Ило Полутешка, Варош, Козле, Варош, Прилеп, Општина Прилеп, Пелагониски СР, 7513, Северна Македонија"
	},
	{
		"lat": "42.3100365",
		"lon": "21.9282714",
		"name": "Вирови",
		"natural": "peak",
		"address": "Kozjak Mountain, R2244, Рамно, Кокино, Општина Старо Нагоричане, Североисточен СР, Северна Македонија"
	},
	{
		"lat": "42.3104534",
		"lon": "21.9273663",
		"name": "Козјак",
		"natural": "mountain_range",
		"address": "Делиновица, Старац, Општина Бујановац, Пчињски управни округ, Централна Србија, Србија"
	},
	{
		"lat": "41.4399887",
		"lon": "20.871092",
		"name": "SKOKALO",
		"natural": "cliff",
		"address": "Селска Патека, Јудово, Општина Кичево, Југозападен СР, Северна Македонија"
	},
	{
		"lat": "41.4436592",
		"lon": "20.8721449",
		"name": "Duko Tasev",
		"historic": "memorial",
		"address": "Селска Патека, Јудово, Општина Кичево, Југозападен СР, Северна Македонија"
	},
	{
		"lat": "42.2656295",
		"lon": "21.7236914",
		"name": "Маминскобрдо",
		"natural": "peak",
		"address": "Маминче, Стрезовце, Општина Прешево, Пчињски управни округ, Централна Србија, Србија"
	},
	{
		"lat": "41.4831122",
		"lon": "20.9229426",
		"name": "Гоце Делчев",
		"historic": "monument",
		"address": "Гоце Делчев, Другово, Општина Кичево, Југозападен СР, 6261, Северна Македонија"
	},
	{
		"lat": "42.3063843",
		"lon": "21.9206974",
		"name": "Среден Камен",
		"natural": "peak",
		"address": "Делиновица, Старац, Општина Бујановац, Пчињски управни округ, Централна Србија, Србија"
	},
	{
		"lat": "42.3534334",
		"lon": "22.2533",
		"name": "Чупино брдо",
		"natural": "peak",
		"address": "Чупино Брдо, Луке, Општина Крива Паланка, Североисточен СР, Северна Македонија"
	},
	{
		"lat": "42.2960333",
		"lon": "22.0669333",
		"name": "Чука",
		"natural": "peak",
		"address": "Широка Планина, Општина Трговиште, Пчињски управни округ, Централна Србија, Србија"
	},
	{
		"lat": "41.4900833",
		"lon": "20.6911871",
		"name": "Само Дрво",
		"natural": "peak",
		"address": "Гари, Општина Дебар, Југозападен СР, Северна Македонија"
	},
	{
		"lat": "41.1948959",
		"lon": "22.7167419",
		"name": "STAGE BEACH",
		"natural": "beach",
		"address": "Плажа Карач, Маршал Тито, Нов Дојран, Општина Дојран, Југоисточен СР, 1487, Северна Македонија"
	},
	{
		"lat": "41.0694477",
		"lon": "21.3177925",
		"name": "Св. Илија",
		"natural": "peak",
		"address": "Крклински Манастир, манастир св.Илија - Снегово, Крклино, Општина Битола, Пелагониски СР, 7000, Северна Македонија"
	},
	{
		"lat": "41.3248058",
		"lon": "21.5938218",
		"name": "Света Вода",
		"natural": "spring",
		"address": "Света Вода, A3, Ѓорѓи Делчев-Гоце, Гоце Делчев, Прилеп, Општина Прилеп, Пелагониски СР, 7510, Северна Македонија"
	},
	{
		"lat": "41.0102064",
		"lon": "21.2195227",
		"name": "Crveni Steni (Red Rocks)",
		"natural": "cliff",
		"tourism": "viewpoint",
		"address": "Crveni Steni (Red Rocks), Crveni Steni Trail, Нижеполе, Општина Битола, Пелагониски СР, Северна Македонија"
	},
	{
		"lat": "41.2101316",
		"lon": "20.5873191",
		"name": "Св. Спас",
		"natural": "cave",
		"address": "Св. Спас, R2240, Октиси, Општина Струга, Југозападен СР, 6335, Северна Македонија"
	},
	{
		"lat": "41.2654778",
		"lon": "21.4972615",
		"name": "Галабник",
		"natural": "peak",
		"address": "Алинци, Општина Прилеп, Пелагониски СР, Северна Македонија"
	},
	{
		"lat": "41.4768229",
		"lon": "21.3565204",
		"name": "Кукулајца",
		"natural": "peak",
		"address": "Рилево, Општина Долнени, Пелагониски СР, Северна Македонија"
	},
	{
		"lat": "41.3852853",
		"lon": "21.2477085",
		"name": "Никлева",
		"natural": "spring",
		"address": "Никлева, Никола Карев, Горно Маало, Крушево ВГ, Општина Крушево, Пелагониски СР, 7550, Северна Македонија"
	},
	{
		"lat": "41.3637769",
		"lon": "21.2363553",
		"name": "Гумова",
		"natural": "spring",
		"address": "Гумова, Благој Целев, Влашко Маало, Крушево ВГ, Општина Крушево, Пелагониски СР, 7550, Северна Македонија"
	},
	{
		"lat": "41.2058438",
		"lon": "21.7169604",
		"name": "Градот",
		"natural": "peak",
		"address": "Градот / Маркови Кули, R1107, Манастир, Општина Прилеп, Пелагониски СР, Северна Македонија"
	},
	{
		"lat": "41.401541",
		"lon": "21.5670869",
		"name": "Сечен Камен",
		"natural": "cliff",
		"address": "Прилеп-Трескавец, Прилеп (Околина), Општина Прилеп, Пелагониски СР, 7513, Северна Македонија"
	},
	{
		"lat": "41.3921357",
		"lon": "21.6902166",
		"name": "Дува Вода",
		"natural": "spring",
		"address": "Дува Вода, R1101, Плетвар, Општина Прилеп, Пелагониски СР, Северна Македонија"
	},
	{
		"lat": "41.3916989",
		"lon": "21.6900379",
		"name": "Козјак",
		"natural": "cave_entrance",
		"address": "Козјак, R1101, Плетвар, Општина Прилеп, Пелагониски СР, Северна Македонија"
	},
	{
		"lat": "41.6695629",
		"lon": "21.0552231",
		"name": "Ujmiri/Dobra voda",
		"natural": "spring",
		"address": "Dobra voda, Добра Вода, Ќафа, Општина Гостивар, Полошки СР, 6254, Северна Македонија"
	},
	{
		"lat": "41.6095462",
		"lon": "20.9192782",
		"name": "Gurra",
		"natural": "spring",
		"address": "Gurra, d1, Xhuma, Зајас, Општина Кичево, Југозападен СР, Северна Македонија"
	},
	{
		"lat": "41.5824866",
		"lon": "21.0958009",
		"name": "Mochur",
		"natural": "spring",
		"address": "Mochur, Ново Село - Светораче, Ново село, Општина Кичево, Југозападен СР, 6254, Северна Македонија"
	},
	{
		"lat": "40.9306504",
		"lon": "21.7861972",
		"name": "Кајмакчалан",
		"natural": "peak",
		"address": "Св. Петар, Скочивир, Општина Новаци, Пелагониски СР, Северна Македонија"
	},
	{
		"lat": "40.9499833",
		"lon": "21.2154667",
		"name": "Голема Грива",
		"natural": "peak",
		"address": "Сапунџица, Нижеполе, Општина Битола, Пелагониски СР, Северна Македонија"
	},
	{
		"lat": "40.9444266",
		"lon": "21.2417676",
		"name": "Муза",
		"natural": "peak",
		"address": "Нижеполе, Општина Битола, Пелагониски СР, Северна Македонија"
	},
	{
		"lat": "40.9609762",
		"lon": "21.2639537",
		"name": "Скрково",
		"natural": "peak",
		"address": "Нижеполе, Општина Битола, Пелагониски СР, Северна Македонија"
	},
	{
		"lat": "40.9665592",
		"lon": "21.2168819",
		"name": "Мразарник",
		"natural": "peak",
		"address": "Нижеполе, Општина Битола, Пелагониски СР, Северна Македонија"
	},
	{
		"lat": "40.9692255",
		"lon": "21.2324279",
		"name": "Мала Грива",
		"natural": "peak",
		"address": "Нижеполе, Општина Битола, Пелагониски СР, Северна Македонија"
	},
	{
		"lat": "41.0089866",
		"lon": "21.1136407",
		"name": "Мала Чука",
		"natural": "peak",
		"address": "Маловиште, Општина Битола, Пелагониски СР, Северна Македонија"
	},
	{
		"lat": "40.9849457",
		"lon": "21.1268153",
		"name": "Голема Чука",
		"natural": "peak",
		"address": "Маловиште, Општина Битола, Пелагониски СР, Северна Македонија"
	},
	{
		"lat": "41.0402366",
		"lon": "21.1501308",
		"name": "Чаула",
		"natural": "peak",
		"address": "Цапари, Општина Битола, Пелагониски СР, Северна Македонија"
	},
	{
		"lat": "41.0411564",
		"lon": "21.1917059",
		"name": "Кале",
		"natural": "peak",
		"address": "Патека до Пелистер, Антена и Големо Езеро, Цапари, Општина Битола, Пелагониски СР, Северна Македонија"
	},
	{
		"lat": "41.0339837",
		"lon": "21.1040768",
		"name": "Чун",
		"natural": "peak",
		"address": "Маловиште, Општина Битола, Пелагониски СР, Северна Македонија"
	},
	{
		"lat": "41.0279018",
		"lon": "21.0991018",
		"name": "Кодра",
		"natural": "peak",
		"address": "Маловиште, Општина Битола, Пелагониски СР, Северна Македонија"
	},
	{
		"lat": "40.9790492",
		"lon": "21.2280136",
		"name": "Чешма Мичу Муши",
		"natural": "spring",
		"address": "Чешма Мичу Муши, Патека до Антена, Мало и Големо Езеро, Нижеполе, Општина Битола, Пелагониски СР, Северна Македонија"
	},
	{
		"lat": "41.6854569",
		"lon": "21.054096",
		"name": "Shlegarnik",
		"natural": "peak",
		"address": "R408, Бенче, Општина Македонски Брод, Југозападен СР, Северна Македонија"
	},
	{
		"lat": "40.9949061",
		"lon": "21.260687",
		"name": "Чука",
		"natural": "peak",
		"address": "Брусник, Општина Битола, Пелагониски СР, Северна Македонија"
	},
	{
		"lat": "41.0086528",
		"lon": "21.2676837",
		"name": "Плоча",
		"natural": "spring",
		"address": "Плоча, R2331, Дихово, Општина Битола, Пелагониски СР, Северна Македонија"
	},
	{
		"lat": "41.0015844",
		"lon": "21.2876702",
		"name": "Касап Бунар",
		"natural": "spring",
		"address": "Касап Бунар, Kanalka 1, Лавци, Општина Битола, Пелагониски СР, 7000, Северна Македонија"
	},
	{
		"lat": "41.0134472",
		"lon": "21.2680615",
		"name": "Масни Кладенец",
		"natural": "spring",
		"address": "Масни Кладенец, R2331, Дихово, Општина Битола, Пелагониски СР, Северна Македонија"
	},
	{
		"lat": "40.9930143",
		"lon": "21.2686952",
		"name": "Орлово Седло",
		"natural": "saddle",
		"address": "Брусник, Општина Битола, Пелагониски СР, Северна Македонија"
	},
	{
		"lat": "40.9637088",
		"lon": "21.2732486",
		"name": "Студена Вода",
		"natural": "spring",
		"address": "Студена Вода, R2331, Нижеполе, Општина Битола, Пелагониски СР, Северна Македонија"
	},
	{
		"lat": "40.9785122",
		"lon": "21.2682832",
		"name": "Црна Стена",
		"natural": "peak",
		"address": "Нижеполе, Општина Битола, Пелагониски СР, Северна Македонија"
	},
	{
		"lat": "41.0976802",
		"lon": "20.857076",
		"name": "Visok Vrv",
		"natural": "peak",
		"address": "Патеката на Леко, Рамне, Општина Охрид, Југозападен СР, 6000, Северна Македонија"
	},
	{
		"lat": "40.9361744",
		"lon": "21.2594195",
		"name": "Бабини Кладенци",
		"natural": "spring",
		"address": "Бабини Кладенци, Сапунџица, Нижеполе, Општина Битола, Пелагониски СР, Северна Македонија"
	},
	{
		"lat": "40.9564154",
		"lon": "21.2918833",
		"name": "Бела Вода",
		"natural": "spring",
		"address": "Бела Вода, R2331, Нижеполе, Општина Битола, Пелагониски СР, Северна Македонија"
	},
	{
		"lat": "40.9492417",
		"lon": "21.2954446",
		"name": "Дупен Камен",
		"natural": "peak",
		"address": "Злокуќани, Општина Битола, Пелагониски СР, Северна Македонија"
	},
	{
		"lat": "40.9482352",
		"lon": "21.3125952",
		"name": "Орлов Камен",
		"natural": "peak",
		"address": "Злокуќани, Општина Битола, Пелагониски СР, Северна Македонија"
	},
	{
		"lat": "40.956168",
		"lon": "21.323181",
		"name": "Драгуша",
		"natural": "peak",
		"address": "Злокуќани, Општина Битола, Пелагониски СР, Северна Македонија"
	},
	{
		"lat": "40.9665665",
		"lon": "21.3382511",
		"name": "Терзијев Врв",
		"natural": "peak",
		"address": "Злокуќани, Општина Битола, Пелагониски СР, Северна Македонија"
	},
	{
		"lat": "40.9617502",
		"lon": "21.3314222",
		"name": "Црквиште",
		"natural": "peak",
		"address": "Злокуќани, Општина Битола, Пелагониски СР, Северна Македонија"
	},
	{
		"lat": "40.9708036",
		"lon": "21.2972613",
		"name": "Горна Тумба",
		"natural": "peak",
		"address": "Орехово, Општина Битола, Пелагониски СР, Северна Македонија"
	},
	{
		"lat": "40.9638681",
		"lon": "21.2847144",
		"name": "Зол Камен",
		"natural": "peak",
		"address": "Орехово, Општина Битола, Пелагониски СР, Северна Македонија"
	},
	{
		"lat": "40.9763461",
		"lon": "21.3004685",
		"name": "Долна Тумба",
		"natural": "peak",
		"address": "Орехово, Општина Битола, Пелагониски СР, Северна Македонија"
	},
	{
		"lat": "41.2751415",
		"lon": "20.5211991",
		"name": "Пупољак",
		"natural": "peak",
		"address": "Лабуништа, Општина Струга, Југозападен СР, 6336, Северна Македонија"
	},
	{
		"lat": "40.9897021",
		"lon": "20.8800033",
		"name": "Томорос",
		"natural": "peak",
		"address": "Лескоец, Општина Ресен, Пелагониски СР, Северна Македонија"
	},
	{
		"lat": "40.9695554",
		"lon": "20.8313872",
		"name": "Лако Сигној (Вакафски Гној)",
		"natural": "peak",
		"address": "R2332, Љубаништа, Општина Охрид, Југозападен СР, Северна Македонија"
	},
	{
		"lat": "41.0043981",
		"lon": "20.8467278",
		"name": "Чумо Влага (Бугарска Чука)",
		"natural": "peak",
		"address": "Елшани, Општина Охрид, Југозападен СР, Северна Македонија"
	},
	{
		"lat": "41.6615737",
		"lon": "20.6729495",
		"name": "Голем Рид",
		"natural": "peak",
		"address": "Сенце, Општина Маврово и Ростуша, Полошки СР, Северна Македонија"
	},
	{
		"lat": "41.6369645",
		"lon": "20.6280061",
		"name": "Карбула",
		"natural": "peak",
		"address": "Болетин, Општина Маврово и Ростуша, Полошки СР, Северна Македонија"
	},
	{
		"lat": "41.3439471",
		"lon": "21.8974581",
		"name": "Орле",
		"natural": "peak",
		"address": "Општина Кавадарци, Вардарски СР, Северна Македонија"
	},
	{
		"lat": "42.1338351",
		"lon": "21.0274214",
		"name": "Доброшки врв",
		"natural": "peak",
		"address": "Јелошник, Општина Теарце, Полошки СР, Северна Македонија"
	},
	{
		"lat": "42.1506214",
		"lon": "21.0092515",
		"name": "Езерска Чука",
		"natural": "peak",
		"address": "Komuna e Shtërpcës / Opština Štrpce, 73000, Kosovë"
	},
	{
		"lat": "41.1085274",
		"lon": "20.9099677",
		"name": "Исток",
		"natural": "peak",
		"address": "Петрино, Општина Ресен, Пелагониски СР, Северна Македонија"
	},
	{
		"lat": "41.2264149",
		"lon": "20.5217505",
		"name": "Чумин Врв",
		"natural": "peak",
		"address": "Горна Белица, Општина Струга, Југозападен СР, Северна Македонија"
	},
	{
		"lat": "41.3441279",
		"lon": "20.5264998",
		"name": "Радуч",
		"natural": "peak",
		"address": "Лакаица, Општина Струга, Југозападен СР, Северна Македонија"
	},
	{
		"lat": "41.3402363",
		"lon": "20.5337193",
		"name": "Слепчарен",
		"natural": "peak",
		"address": "Лакаица, Општина Струга, Југозападен СР, Северна Македонија"
	},
	{
		"lat": "41.2712692",
		"lon": "22.6713122",
		"name": "Боска",
		"natural": "peak",
		"address": "Севендекли, Општина Дојран, Југоисточен СР, Северна Македонија"
	},
	{
		"lat": "41.7626495",
		"lon": "21.3412177",
		"name": "Остри Врв",
		"natural": "peak",
		"address": "Црн Врв, Општина Студеничани, Скопски СР, Северна Македонија"
	},
	{
		"lat": "41.7574467",
		"lon": "21.3654681",
		"name": "Салаковски Езера",
		"natural": "wetland",
		"address": "Црн Врв, Општина Студеничани, Скопски СР, Северна Македонија"
	},
	{
		"lat": "41.7615444",
		"lon": "21.358562",
		"name": "Убава",
		"natural": "peak",
		"address": "Црн Врв, Општина Студеничани, Скопски СР, Северна Македонија"
	},
	{
		"lat": "41.7507691",
		"lon": "21.2998508",
		"name": "Крајни Камен",
		"natural": "peak",
		"address": "Тажево, Општина Македонски Брод, Југозападен СР, Северна Македонија"
	},
	{
		"lat": "42.0409442",
		"lon": "20.8601512",
		"name": "Јелачки Црн Врв",
		"natural": "peak",
		"address": "Бродец, Општина Тетово, Полошки СР, Северна Македонија"
	},
	{
		"lat": "41.5809126",
		"lon": "20.7578283",
		"name": "Голем Брзовец",
		"natural": "peak",
		"address": "Тресонче, Општина Маврово и Ростуша, Полошки СР, Северна Македонија"
	},
	{
		"lat": "41.5769714",
		"lon": "20.738471",
		"name": "Мал Брзовец",
		"natural": "peak",
		"address": "Тресонче, Општина Маврово и Ростуша, Полошки СР, Северна Македонија"
	},
	{
		"lat": "41.5936849",
		"lon": "20.7478454",
		"name": "Ќурков Дол",
		"natural": "peak",
		"address": "Тресонче, Општина Маврово и Ростуша, Полошки СР, Северна Македонија"
	}
]
